[{"address":"043 Mockingbird Place","latitude":39.1682,"longitude":-86.5186,"us_state":"Indiana","name":"Cancott,Benetta"},{"address":"4 Prentice Point","latitude":41.0938,"longitude":-85.0707,"us_state":"Indiana","name":"Cherry,Lilyan"},{"address":"46 Derek Junction","latitude":32.7673,"longitude":-96.7776,"us_state":"Texas","name":"Benasik,Ezekiel"},{"address":"11966 Old Shore Place","latitude":39.035,"longitude":-94.3567,"us_state":"Missouri","name":"Atlay,Kennedy"},{"address":"5 Evergreen Circle","latitude":40.7808,"longitude":-73.9772,"us_state":"New York","name":"Salmen,Sanford"},{"address":"5304 Vidon Drive","latitude":32.7887,"longitude":-96.7676,"us_state":"Texas","name":"Sheach,Ricki"},{"address":"65 Texas Avenue","latitude":39.8285,"longitude":-84.2024,"us_state":"Ohio","name":"Cockitt,Haroun"},{"address":"041 Eagle Crest Court","latitude":32.0295,"longitude":-102.0915,"us_state":"Texas","name":"Bortolozzi,Tuesday"},{"address":"72402 Annamark Terrace","latitude":38.8992,"longitude":-77.0089,"us_state":"District of Columbia","name":"Eplate,Liz"},{"address":"7 Sauthoff Circle","latitude":35.191,"longitude":-94.2382,"us_state":"Arkansas","name":"Dwelley,Rina"},{"address":"52 Hovde Alley","latitude":33.4951,"longitude":-86.8059,"us_state":"Alabama","name":"Ronaldson,Giacinta"},{"address":"31398 Meadow Valley Park","latitude":61.1089,"longitude":-149.4403,"us_state":"Alaska","name":"Muir,Shelbi"},{"address":"62559 Gateway Parkway","latitude":45.9783,"longitude":-108.1945,"us_state":"Montana","name":"Ridings,Pancho"},{"address":"5 Cascade Junction","latitude":29.4237,"longitude":-98.4925,"us_state":"Texas","name":"Manley,Sharl"},{"address":"1175 Logan Circle","latitude":43.0214,"longitude":-76.1977,"us_state":"New York","name":"Willoughway,Quintus"},{"address":"81 Macpherson Court","latitude":40.4001,"longitude":-86.8602,"us_state":"Indiana","name":"Greguol,Tamara"},{"address":"1344 Fairfield Circle","latitude":38.189,"longitude":-85.6768,"us_state":"Kentucky","name":"Dives,Janeva"},{"address":"2 Brickson Park Trail","latitude":37.9971,"longitude":-87.575,"us_state":"Indiana","name":"Yeoland,Tades"},{"address":"76146 Surrey Circle","latitude":39.5224,"longitude":-119.8353,"us_state":"Nevada","name":"Wilsey,Maxim"},{"address":"530 Valley Edge Park","latitude":39.7388,"longitude":-104.4083,"us_state":"Colorado","name":"Clapston,Melicent"},{"address":"088 Grayhawk Hill","latitude":40.3086,"longitude":-76.8464,"us_state":"Pennsylvania","name":"Amerighi,Tedmund"},{"address":"3 Annamark Hill","latitude":27.9139,"longitude":-82.7157,"us_state":"Florida","name":"Foynes,Lenna"},{"address":"740 Starling Hill","latitude":34.734,"longitude":-86.5229,"us_state":"Alabama","name":"Batrim,Toddy"},{"address":"1622 Emmet Park","latitude":37.6802,"longitude":-121.9215,"us_state":"California","name":"Rees,Raoul"},{"address":"4 Independence Lane","latitude":45.0159,"longitude":-93.4719,"us_state":"Minnesota","name":"McSorley,Aurilia"},{"address":"15 Crest Line Street","latitude":33.9909,"longitude":-118.1532,"us_state":"California","name":"Boncore,Valerie"},{"address":"502 Cardinal Drive","latitude":31.7705,"longitude":-106.5048,"us_state":"Texas","name":"MacAdie,Fiorenze"},{"address":"77 Emmet Terrace","latitude":37.5593,"longitude":-77.4471,"us_state":"Virginia","name":"Andrin,Nicky"},{"address":"51 Superior Parkway","latitude":32.7582,"longitude":-97.1003,"us_state":"Texas","name":"Guillet,Adrea"},{"address":"15282 Cottonwood Lane","latitude":28.0726,"longitude":-82.559,"us_state":"Florida","name":"Gherardini,Ame"},{"address":"6 Schlimgen Hill","latitude":28.0173,"longitude":-82.7461,"us_state":"Florida","name":"Kunrad,Ruggiero"},{"address":"37616 Fisk Terrace","latitude":38.5814,"longitude":-90.2625,"us_state":"Missouri","name":"Jeandet,Reuben"},{"address":"9239 Schmedeman Pass","latitude":43.1367,"longitude":-77.6481,"us_state":"New York","name":"Barlass,Tandi"},{"address":"239 Fallview Terrace","latitude":40.7651,"longitude":-73.9858,"us_state":"New York","name":"Beardmore,Brynne"},{"address":"36452 Morningstar Parkway","latitude":26.1097,"longitude":-80.3215,"us_state":"Florida","name":"Bassilashvili,Wolfie"},{"address":"76707 Lakewood Gardens Trail","latitude":30.0211,"longitude":-94.1157,"us_state":"Texas","name":"Crowcombe,Merrick"},{"address":"598 Lotheville Parkway","latitude":42.2399,"longitude":-83.1508,"us_state":"Michigan","name":"Lowre,Langston"},{"address":"7532 Morning Parkway","latitude":30.287,"longitude":-81.3893,"us_state":"Florida","name":"Tebbit,Cordey"},{"address":"755 Forest Way","latitude":41.119,"longitude":-73.733,"us_state":"New York","name":"Trumble,Leticia"},{"address":"05649 Scott Parkway","latitude":35.1316,"longitude":-80.8577,"us_state":"North Carolina","name":"Scocroft,Derwin"},{"address":"79 Oak Valley Road","latitude":40.3522,"longitude":-78.9383,"us_state":"Pennsylvania","name":"Guirard,Emlynne"},{"address":"797 Marcy Pass","latitude":41.613,"longitude":-90.6063,"us_state":"Iowa","name":"Rennick,Archibald"},{"address":"8844 Duke Street","latitude":35.0768,"longitude":-85.3082,"us_state":"Tennessee","name":"Andrusyak,Emmery"},{"address":"3 Pine View Plaza","latitude":27.1675,"longitude":-82.381,"us_state":"Florida","name":"Revie,Pattie"},{"address":"0446 Grayhawk Place","latitude":34.8019,"longitude":-92.1894,"us_state":"Arkansas","name":"Caudrelier,Dukey"},{"address":"96 Memorial Park","latitude":31.6948,"longitude":-106.3,"us_state":"Texas","name":"Rubinchik,Brittney"},{"address":"80399 Red Cloud Junction","latitude":29.6297,"longitude":-95.4382,"us_state":"Texas","name":"Jeannenet,Clarinda"},{"address":"72910 American Ash Alley","latitude":37.5422,"longitude":-97.2871,"us_state":"Kansas","name":"Jarrelt,Sonja"},{"address":"575 Moose Lane","latitude":38.8933,"longitude":-77.0146,"us_state":"District of Columbia","name":"Duggon,Alwyn"},{"address":"376 Saint Paul Avenue","latitude":32.4908,"longitude":-92.1594,"us_state":"Louisiana","name":"Muehler,Dunstan"},{"address":"07 Colorado Place","latitude":33.7843,"longitude":-118.1157,"us_state":"California","name":"Symcock,Ambrosius"},{"address":"1 Gina Junction","latitude":33.9443,"longitude":-83.3891,"us_state":"Georgia","name":"Blew,Tymon"},{"address":"3818 Jana Hill","latitude":41.2722,"longitude":-75.8801,"us_state":"Pennsylvania","name":"Cram,Vail"},{"address":"9150 Florence Court","latitude":36.7991,"longitude":-119.8016,"us_state":"California","name":"Balfour,Kean"},{"address":"19 Eliot Trail","latitude":32.6076,"longitude":-93.7526,"us_state":"Louisiana","name":"Giacometti,Hall"},{"address":"6 Shelley Place","latitude":45.2009,"longitude":-93.8881,"us_state":"Minnesota","name":"Berling,Haley"},{"address":"114 Melby Road","latitude":40.8171,"longitude":-73.7416,"us_state":"New York","name":"Graysmark,Glori"},{"address":"975 Clove Trail","latitude":33.6062,"longitude":-117.8931,"us_state":"California","name":"Newbury,Gabi"},{"address":"896 Anzinger Trail","latitude":26.2416,"longitude":-81.8071,"us_state":"Florida","name":"Collis,Kerstin"},{"address":"24 Mockingbird Drive","latitude":33.7843,"longitude":-118.1157,"us_state":"California","name":"Burgiss,Aylmer"},{"address":"113 Pearson Way","latitude":37.7509,"longitude":-122.4153,"us_state":"California","name":"McVeighty,Rebeka"},{"address":"66053 Oak Park","latitude":41.6525,"longitude":-83.5085,"us_state":"Ohio","name":"St Ledger,Ulrike"},{"address":"27664 Emmet Crossing","latitude":25.5584,"longitude":-80.4582,"us_state":"Florida","name":"Kalkhoven,Kristal"},{"address":"33597 Schlimgen Avenue","latitude":33.8444,"longitude":-84.474,"us_state":"Georgia","name":"Lombard,Saxe"},{"address":"7 Forest Lane","latitude":33.7866,"longitude":-118.2987,"us_state":"California","name":"Escolme,Cherida"},{"address":"2 Jana Center","latitude":40.0418,"longitude":-76.3012,"us_state":"Pennsylvania","name":"Chin,Dalston"},{"address":"77933 Bonner Avenue","latitude":37.5313,"longitude":-77.4161,"us_state":"Virginia","name":"Pelfer,Jim"},{"address":"681 Del Sol Avenue","latitude":40.2618,"longitude":-76.88,"us_state":"Pennsylvania","name":"Greguoli,Nertie"},{"address":"30814 Westport Alley","latitude":25.5584,"longitude":-80.4582,"us_state":"Florida","name":"Rubartelli,Fonz"},{"address":"823 3rd Alley","latitude":34.8661,"longitude":-82.3198,"us_state":"South Carolina","name":"D'Hooge,Homerus"},{"address":"1575 Village Place","latitude":30.0956,"longitude":-81.6217,"us_state":"Florida","name":"Gossop,Faber"},{"address":"5 Elgar Pass","latitude":43.5851,"longitude":-116.2191,"us_state":"Idaho","name":"Purse,Tonie"},{"address":"37131 Reindahl Park","latitude":39.592,"longitude":-105.1328,"us_state":"Colorado","name":"Fleet,Cristine"},{"address":"12 Tomscot Drive","latitude":36.7377,"longitude":-119.7843,"us_state":"California","name":"Sugar,Artair"},{"address":"9387 Texas Road","latitude":38.4631,"longitude":-122.99,"us_state":"California","name":"Dilnot,Zolly"},{"address":"1 Spenser Plaza","latitude":41.2722,"longitude":-75.8801,"us_state":"Pennsylvania","name":"Restall,Teodorico"},{"address":"1 Mockingbird Terrace","latitude":40.7918,"longitude":-74.2452,"us_state":"New Jersey","name":"Ovise,Geri"},{"address":"48 Atwood Circle","latitude":47.6849,"longitude":-122.2968,"us_state":"Washington","name":"Scrogges,Tate"},{"address":"26434 Atwood Road","latitude":41.613,"longitude":-90.6063,"us_state":"Iowa","name":"Larcombe,Ginnie"},{"address":"0953 Moulton Avenue","latitude":32.404,"longitude":-86.2539,"us_state":"Alabama","name":"Loan,Celie"},{"address":"8595 Marcy Trail","latitude":33.8444,"longitude":-84.474,"us_state":"Georgia","name":"Chaster,Euell"},{"address":"489 Stone Corner Crossing","latitude":37.5313,"longitude":-77.4161,"us_state":"Virginia","name":"Zupa,Letti"},{"address":"7696 Haas Alley","latitude":38.8377,"longitude":-104.837,"us_state":"Colorado","name":"Grayling,Lucian"},{"address":"9 Badeau Street","latitude":37.3811,"longitude":-122.3348,"us_state":"California","name":"Solloway,Nickolas"},{"address":"001 Prairie Rose Point","latitude":41.9705,"longitude":-70.7014,"us_state":"Massachusetts","name":"D'Oyley,Adore"},{"address":"8 Menomonie Terrace","latitude":38.9087,"longitude":-77.0414,"us_state":"District of Columbia","name":"Scaplehorn,Kipper"},{"address":"54121 Marquette Point","latitude":27.981,"longitude":-81.6736,"us_state":"Florida","name":"Boni,Millisent"},{"address":"67 Eggendart Parkway","latitude":47.0662,"longitude":-122.1132,"us_state":"Washington","name":"Dougill,Filip"},{"address":"1 Roth Street","latitude":34.734,"longitude":-86.5229,"us_state":"Alabama","name":"Vineall,Melonie"},{"address":"7 Cardinal Road","latitude":40.0018,"longitude":-75.1179,"us_state":"Pennsylvania","name":"Rosenberg,Cale"},{"address":"12 Pine View Alley","latitude":35.9901,"longitude":-83.9622,"us_state":"Tennessee","name":"Fenn,Rheta"},{"address":"2 Sunnyside Way","latitude":33.5446,"longitude":-86.9292,"us_state":"Alabama","name":"Minear,Hilary"},{"address":"0982 Maywood Crossing","latitude":26.6644,"longitude":-80.1741,"us_state":"Florida","name":"Lockley,Constantina"},{"address":"280 Weeping Birch Crossing","latitude":41.8119,"longitude":-87.6873,"us_state":"Illinois","name":"Frankcombe,Katrine"},{"address":"5 1st Trail","latitude":38.8976,"longitude":-77.027,"us_state":"District of Columbia","name":"MacKain,Jarrid"},{"address":"8329 Messerschmidt Point","latitude":36.0119,"longitude":-115.0433,"us_state":"Nevada","name":"Alldred,Ned"},{"address":"8 Goodland Court","latitude":33.386,"longitude":-82.091,"us_state":"Georgia","name":"Oakwood,Karla"},{"address":"43754 Lyons Road","latitude":26.9668,"longitude":-81.9545,"us_state":"Florida","name":"Peatman,Say"},{"address":"3410 Merchant Pass","latitude":33.7866,"longitude":-118.2987,"us_state":"California","name":"Yann,Morse"},{"address":"76 Dwight Drive","latitude":41.119,"longitude":-73.733,"us_state":"New York","name":"Bigly,Jennilee"},{"address":"49113 Lindbergh Trail","latitude":30.033,"longitude":-89.8826,"us_state":"Louisiana","name":"Ramey,Abel"},{"address":"617 Fairview Circle","latitude":36.8686,"longitude":-76.3552,"us_state":"Virginia","name":"Cooch,Isabel"},{"address":"25 Atwood Pass","latitude":45.6231,"longitude":-122.5767,"us_state":"Washington","name":"Richold,Sarine"},{"address":"0828 Moose Court","latitude":41.3657,"longitude":-72.9275,"us_state":"Connecticut","name":"Delepine,Harp"},{"address":"6 Canary Street","latitude":40.5973,"longitude":-74.0768,"us_state":"New York","name":"Bows,Waldo"},{"address":"40 Sunfield Street","latitude":42.5991,"longitude":-83.1789,"us_state":"Michigan","name":"Yter,Gene"},{"address":"097 Pawling Parkway","latitude":35.9279,"longitude":-114.9721,"us_state":"Nevada","name":"Fryman,Lelia"},{"address":"5 Manufacturers Junction","latitude":41.3657,"longitude":-72.9275,"us_state":"Connecticut","name":"Sincock,Hyacinthia"},{"address":"15 Pawling Street","latitude":32.7065,"longitude":-97.3375,"us_state":"Texas","name":"Vayne,Aylmer"},{"address":"55 Kropf Place","latitude":38.8933,"longitude":-77.0146,"us_state":"District of Columbia","name":"Gettone,Justin"},{"address":"98551 Welch Center","latitude":38.8933,"longitude":-77.0146,"us_state":"District of Columbia","name":"Gorghetto,Stefania"},{"address":"67709 Center Crossing","latitude":44.4601,"longitude":-88.0074,"us_state":"Wisconsin","name":"Ferriman,Leigh"},{"address":"0 Bunker Hill Center","latitude":45.7246,"longitude":-111.1238,"us_state":"Montana","name":"Huggin,Waverly"},{"address":"751 High Crossing Center","latitude":44.9806,"longitude":-93.1771,"us_state":"Minnesota","name":"Vink,Cesare"},{"address":"2 Little Fleur Way","latitude":33.2765,"longitude":-112.1872,"us_state":"Arizona","name":"Hendin,Tracey"},{"address":"0 Dawn Avenue","latitude":30.0042,"longitude":-95.1728,"us_state":"Texas","name":"Webborn,Stinky"},{"address":"878 Magdeline Lane","latitude":34.0324,"longitude":-119.1343,"us_state":"California","name":"Tosspell,Trudey"},{"address":"4489 Nancy Alley","latitude":45.2009,"longitude":-93.8881,"us_state":"Minnesota","name":"Szymonowicz,Boy"},{"address":"51836 Oak Pass","latitude":38.8247,"longitude":-104.562,"us_state":"Colorado","name":"Kubala,Torre"},{"address":"25277 Mifflin Circle","latitude":41.7458,"longitude":-87.6054,"us_state":"Illinois","name":"Ratazzi,Jenica"},{"address":"1 West Lane","latitude":37.5593,"longitude":-77.4471,"us_state":"Virginia","name":"Torbard,Tannie"},{"address":"5815 Blaine Plaza","latitude":33.5446,"longitude":-86.9292,"us_state":"Alabama","name":"Ditchett,Teador"},{"address":"96173 8th Park","latitude":32.7233,"longitude":-97.269,"us_state":"Texas","name":"Gumery,Agathe"},{"address":"899 Fairview Terrace","latitude":36.1398,"longitude":-96.0297,"us_state":"Oklahoma","name":"Wyke,Cos"},{"address":"67281 Fuller Pass","latitude":27.777,"longitude":-97.4632,"us_state":"Texas","name":"Klein,Dunc"},{"address":"91680 Carberry Parkway","latitude":40.8469,"longitude":-73.7874,"us_state":"New York","name":"Kuna,Cristal"},{"address":"49 Eliot Park","latitude":34.7519,"longitude":-92.3925,"us_state":"Arkansas","name":"Loughhead,Philly"},{"address":"33 Graedel Trail","latitude":34.0324,"longitude":-119.1343,"us_state":"California","name":"Honywill,Gerrie"},{"address":"074 Sycamore Crossing","latitude":45.0058,"longitude":-93.4193,"us_state":"Minnesota","name":"Hurleston,Gregory"},{"address":"41130 Duke Point","latitude":27.4841,"longitude":-82.5834,"us_state":"Florida","name":"Manderson,Emelen"},{"address":"4 Donald Park","latitude":43.0314,"longitude":-85.5503,"us_state":"Michigan","name":"Dumbell,Iggie"},{"address":"7926 Dennis Alley","latitude":37.2742,"longitude":-79.9579,"us_state":"Virginia","name":"Parman,Antonia"},{"address":"54251 Everett Drive","latitude":32.7673,"longitude":-96.7776,"us_state":"Texas","name":"Cristou,Curtis"},{"address":"01833 Welch Crossing","latitude":41.8756,"longitude":-87.6378,"us_state":"Illinois","name":"Borgesio,Teodora"},{"address":"55978 Morrow Lane","latitude":35.0942,"longitude":-85.1757,"us_state":"Tennessee","name":"Rodenburg,Trudy"},{"address":"2983 Loeprich Place","latitude":44.4601,"longitude":-88.0074,"us_state":"Wisconsin","name":"Ismay,Elvina"},{"address":"938 Lien Pass","latitude":40.4344,"longitude":-80.0248,"us_state":"Pennsylvania","name":"Pocknoll,Hilde"},{"address":"6 Mockingbird Terrace","latitude":30.033,"longitude":-89.8826,"us_state":"Louisiana","name":"Hawgood,Nathalie"},{"address":"88938 Graedel Place","latitude":33.8444,"longitude":-84.474,"us_state":"Georgia","name":"Brambill,Berry"},{"address":"48 Tennyson Terrace","latitude":29.6223,"longitude":-95.26,"us_state":"Texas","name":"Domelow,Elita"},{"address":"80 Monument Parkway","latitude":39.734,"longitude":-105.0259,"us_state":"Colorado","name":"Bound,Elyse"},{"address":"5 Parkside Avenue","latitude":39.3093,"longitude":-76.6699,"us_state":"Maryland","name":"Norwood,Ancell"},{"address":"91112 Dexter Terrace","latitude":43.0696,"longitude":-89.4239,"us_state":"Wisconsin","name":"Langmead,Adlai"},{"address":"56552 Sachtjen Park","latitude":47.1591,"longitude":-122.5485,"us_state":"Washington","name":"Spridgen,Stearn"},{"address":"297 Gerald Junction","latitude":35.9279,"longitude":-114.9721,"us_state":"Nevada","name":"Haestier,Ibrahim"},{"address":"1024 Transport Center","latitude":33.0169,"longitude":-116.846,"us_state":"California","name":"Edmonds,Claudianus"},{"address":"30275 Waxwing Center","latitude":35.6124,"longitude":-88.8412,"us_state":"Tennessee","name":"Creboe,Dorey"},{"address":"2 Corscot Street","latitude":30.2906,"longitude":-95.3832,"us_state":"Texas","name":"Borell,Leontyne"},{"address":"5044 Canary Center","latitude":39.009,"longitude":-77.4422,"us_state":"Virginia","name":"Aked,Ruthi"},{"address":"79456 Delaware Avenue","latitude":30.2231,"longitude":-81.7556,"us_state":"Florida","name":"Grigolashvill,Andros"},{"address":"7998 Meadow Ridge Place","latitude":39.0663,"longitude":-94.5674,"us_state":"Missouri","name":"Roscoe,Alysia"},{"address":"21 Lake View Avenue","latitude":35.7977,"longitude":-78.6253,"us_state":"North Carolina","name":"Hoble,Erika"},{"address":"0 Lake View Lane","latitude":39.1075,"longitude":-84.5257,"us_state":"Ohio","name":"Tillard,Noland"},{"address":"77 Corben Junction","latitude":40.303,"longitude":-76.8862,"us_state":"Pennsylvania","name":"Myhill,Cirstoforo"},{"address":"047 Crownhardt Trail","latitude":30.0877,"longitude":-89.8462,"us_state":"Louisiana","name":"Pegrum,Lorine"},{"address":"29128 Kenwood Junction","latitude":40.43,"longitude":-74.4173,"us_state":"New Jersey","name":"Davydzenko,Torie"},{"address":"6417 Dayton Park","latitude":37.6808,"longitude":-97.1558,"us_state":"Kansas","name":"Daykin,Anson"},{"address":"8053 Merrick Pass","latitude":45.071,"longitude":-92.9391,"us_state":"Minnesota","name":"Hawtrey,Kate"},{"address":"5143 Laurel Trail","latitude":43.0214,"longitude":-76.1977,"us_state":"New York","name":"Mulmuray,Marigold"},{"address":"8516 Delladonna Court","latitude":38.945,"longitude":-77.0364,"us_state":"District of Columbia","name":"Jellings,Angel"},{"address":"6599 Miller Terrace","latitude":40.6914,"longitude":-73.8061,"us_state":"New York","name":"Vosse,Hilly"},{"address":"15 John Wall Court","latitude":40.8247,"longitude":-73.894,"us_state":"New York","name":"Wooster,Keven"},{"address":"19 Schurz Trail","latitude":31.3902,"longitude":-97.7993,"us_state":"Texas","name":"Marmion,Nada"},{"address":"41 Summer Ridge Circle","latitude":34.84,"longitude":-115.9671,"us_state":"California","name":"Dukesbury,Corrie"},{"address":"5 Hovde Plaza","latitude":40.0185,"longitude":-76.2976,"us_state":"Pennsylvania","name":"Healings,Sadye"},{"address":"12 Drewry Court","latitude":29.0227,"longitude":-81.1722,"us_state":"Florida","name":"Kerner,Cedric"},{"address":"8179 Russell Parkway","latitude":35.1334,"longitude":-90.0046,"us_state":"Tennessee","name":"Nijs,Burr"},{"address":"00 Eastwood Street","latitude":40.702,"longitude":-74.089,"us_state":"New Jersey","name":"Dibbin,Bellanca"},{"address":"233 Village Green Plaza","latitude":37.4009,"longitude":-79.1785,"us_state":"Virginia","name":"D'Ambrogi,Elysha"},{"address":"5 Dixon Court","latitude":41.5968,"longitude":-86.293,"us_state":"Indiana","name":"Aim,Orton"},{"address":"36585 Derek Hill","latitude":38.354,"longitude":-81.6394,"us_state":"West Virginia","name":"Penner,Samaria"},{"address":"047 Golf Course Trail","latitude":38.5309,"longitude":-92.2493,"us_state":"Missouri","name":"Wittrington,Allie"},{"address":"33 New Castle Hill","latitude":39.1668,"longitude":-84.5382,"us_state":"Ohio","name":"Lownie,Andrei"},{"address":"4455 Kingsford Street","latitude":42.3654,"longitude":-71.2316,"us_state":"Massachusetts","name":"Mussen,Micky"},{"address":"0560 Meadow Vale Terrace","latitude":43.6746,"longitude":-96.7913,"us_state":"South Dakota","name":"Copcutt,Ulberto"},{"address":"71 Barnett Point","latitude":38.8959,"longitude":-77.0211,"us_state":"District of Columbia","name":"Deverick,Jennee"},{"address":"5 Colorado Terrace","latitude":44.2595,"longitude":-72.585,"us_state":"Vermont","name":"Carnachen,Puff"},{"address":"7 Oxford Way","latitude":42.0144,"longitude":-88.0935,"us_state":"Illinois","name":"Weson,Conchita"},{"address":"987 Kingsford Junction","latitude":42.2922,"longitude":-85.633,"us_state":"Michigan","name":"Denerley,Morena"},{"address":"8 Bluejay Point","latitude":32.6076,"longitude":-93.7526,"us_state":"Louisiana","name":"Selman,Fredric"},{"address":"64536 Eliot Crossing","latitude":39.6505,"longitude":-79.944,"us_state":"West Virginia","name":"Ammer,Rochette"},{"address":"151 Cottonwood Hill","latitude":26.0989,"longitude":-80.1541,"us_state":"Florida","name":"Bastistini,Rice"},{"address":"7738 Memorial Way","latitude":30.6341,"longitude":-88.0846,"us_state":"Alabama","name":"Cave,Nap"},{"address":"42 Loeprich Crossing","latitude":33.786,"longitude":-84.3514,"us_state":"Georgia","name":"Scholefield,Lizette"},{"address":"4 Eastwood Pass","latitude":39.7467,"longitude":-104.8384,"us_state":"Colorado","name":"Maymond,Hillel"},{"address":"9762 Pearson Pass","latitude":38.2149,"longitude":-85.6245,"us_state":"Kentucky","name":"Willan,Angelique"},{"address":"64009 Green Ridge Alley","latitude":43.4599,"longitude":-116.244,"us_state":"Idaho","name":"Soots,Darda"},{"address":"16502 Anderson Court","latitude":35.2017,"longitude":-89.9715,"us_state":"Tennessee","name":"Crumby,Baudoin"},{"address":"41 Menomonie Lane","latitude":33.7866,"longitude":-118.2987,"us_state":"California","name":"Swanton,Englebert"},{"address":"76949 Norway Maple Trail","latitude":25.7341,"longitude":-80.4068,"us_state":"Florida","name":"Pearsall,Errick"},{"address":"8 Loeprich Street","latitude":39.0429,"longitude":-95.7697,"us_state":"Kansas","name":"Andrews,Morris"},{"address":"0889 Roth Avenue","latitude":47.0662,"longitude":-122.1132,"us_state":"Washington","name":"Burril,Stevena"},{"address":"84 Katie Crossing","latitude":34.1869,"longitude":-118.348,"us_state":"California","name":"Reedy,Augie"},{"address":"045 Eagan Junction","latitude":37.7211,"longitude":-122.4754,"us_state":"California","name":"Writer,Hank"},{"address":"884 Namekagon Circle","latitude":33.783,"longitude":-118.0256,"us_state":"California","name":"Lambol,Ario"},{"address":"297 Merry Park","latitude":38.9613,"longitude":-94.8222,"us_state":"Kansas","name":"Wreiford,Davis"},{"address":"830 Anniversary Road","latitude":43.4732,"longitude":-83.9514,"us_state":"Michigan","name":"Housaman,Griselda"},{"address":"253 Morning Hill","latitude":35.0425,"longitude":-90.0732,"us_state":"Tennessee","name":"Nalder,Mariska"},{"address":"160 Prairieview Center","latitude":33.7529,"longitude":-116.0556,"us_state":"California","name":"Abbate,Charity"},{"address":"88510 Lien Crossing","latitude":35.4015,"longitude":-101.8951,"us_state":"Texas","name":"Blomfield,Marijn"},{"address":"33 Vernon Court","latitude":40.081,"longitude":-82.9383,"us_state":"Ohio","name":"Cadney,Merrilee"},{"address":"5 Monterey Lane","latitude":40.2805,"longitude":-74.712,"us_state":"New Jersey","name":"Linebarger,Gilbertine"},{"address":"6 Vermont Place","latitude":45.4918,"longitude":-122.7267,"us_state":"Oregon","name":"Wyndham,Che"},{"address":"527 Jackson Circle","latitude":38.8933,"longitude":-77.0146,"us_state":"District of Columbia","name":"Mazillius,Conney"},{"address":"4 Dennis Junction","latitude":33.2765,"longitude":-112.1872,"us_state":"Arizona","name":"Ebenezer,Saxe"},{"address":"722 Roth Hill","latitude":38.3365,"longitude":-77.4366,"us_state":"Virginia","name":"Mawdsley,Towney"},{"address":"7596 Jenna Park","latitude":32.3366,"longitude":-111.1771,"us_state":"Arizona","name":"Tufts,Jeffy"},{"address":"80087 Lighthouse Bay Alley","latitude":29.4375,"longitude":-98.4616,"us_state":"Texas","name":"Pender,Norton"},{"address":"62694 Johnson Circle","latitude":35.2017,"longitude":-89.9715,"us_state":"Tennessee","name":"Rosenhaupt,Ashlee"},{"address":"19 Mallory Plaza","latitude":38.2868,"longitude":-85.7321,"us_state":"Indiana","name":"Drewet,Lucas"},{"address":"5540 Anthes Court","latitude":33.8932,"longitude":-84.2539,"us_state":"Georgia","name":"Liebmann,Haily"},{"address":"59241 Ilene Crossing","latitude":40.7808,"longitude":-73.9772,"us_state":"New York","name":"Ronci,Gavan"},{"address":"735 Cody Court","latitude":39.6888,"longitude":-105.156,"us_state":"Colorado","name":"Elnor,Terri"},{"address":"5362 Comanche Pass","latitude":27.7391,"longitude":-82.6435,"us_state":"Florida","name":"Long,Micheline"},{"address":"17 Butternut Hill","latitude":40.0018,"longitude":-75.1179,"us_state":"Pennsylvania","name":"Harvison,Georges"},{"address":"241 Texas Junction","latitude":35.5514,"longitude":-97.4075,"us_state":"Oklahoma","name":"Witcher,Brig"},{"address":"15529 Comanche Plaza","latitude":38.189,"longitude":-85.6768,"us_state":"Kentucky","name":"Dent,Sam"},{"address":"2244 Victoria Place","latitude":32.2519,"longitude":-110.82,"us_state":"Arizona","name":"Roxburch,Skye"},{"address":"7 Pankratz Park","latitude":34.2651,"longitude":-77.867,"us_state":"North Carolina","name":"Parradine,Arman"},{"address":"5859 Bultman Street","latitude":39.7655,"longitude":-89.7293,"us_state":"Illinois","name":"Witchalls,Bran"},{"address":"6 Cordelia Lane","latitude":37.0318,"longitude":-76.3199,"us_state":"Virginia","name":"Broadnicke,Tatum"},{"address":"64267 Rusk Drive","latitude":26.045,"longitude":-81.6669,"us_state":"Florida","name":"Grotty,Maxwell"},{"address":"27 Claremont Park","latitude":41.9453,"longitude":-87.7474,"us_state":"Illinois","name":"Di Frisco,Willetta"},{"address":"14696 Maple Wood Trail","latitude":37.625,"longitude":-77.4959,"us_state":"Virginia","name":"Stanners,Alysa"},{"address":"7 Division Trail","latitude":33.4951,"longitude":-86.8059,"us_state":"Alabama","name":"Ellesworthe,Kristan"},{"address":"7146 Anderson Circle","latitude":27.8918,"longitude":-82.7248,"us_state":"Florida","name":"Stapforth,Carree"},{"address":"59 Weeping Birch Hill","latitude":36.7464,"longitude":-119.6397,"us_state":"California","name":"Peerman,Grace"},{"address":"5 Kennedy Crossing","latitude":36.2471,"longitude":-115.221,"us_state":"Nevada","name":"Aldwich,Robb"},{"address":"81 Prentice Avenue","latitude":42.2464,"longitude":-85.0045,"us_state":"Michigan","name":"MacAlpyne,Leanora"},{"address":"05317 Village Trail","latitude":32.4968,"longitude":-92.0756,"us_state":"Louisiana","name":"Harvett,Hakim"},{"address":"5471 Summer Ridge Park","latitude":38.8933,"longitude":-77.0146,"us_state":"District of Columbia","name":"Myring,Walt"},{"address":"939 Rutledge Lane","latitude":40.2204,"longitude":-74.7622,"us_state":"New Jersey","name":"Mewrcik,Bear"},{"address":"4 Stuart Pass","latitude":37.3983,"longitude":-122.0006,"us_state":"California","name":"Scripture,Kristofer"},{"address":"15684 Johnson Street","latitude":36.9959,"longitude":-122.0578,"us_state":"California","name":"Lalor,Debbi"},{"address":"97579 Welch Street","latitude":41.613,"longitude":-90.6063,"us_state":"Iowa","name":"Cutill,Arline"},{"address":"28 Delaware Street","latitude":30.033,"longitude":-89.8826,"us_state":"Louisiana","name":"Forsaith,Orbadiah"},{"address":"14542 Monica Plaza","latitude":29.7853,"longitude":-95.1852,"us_state":"Texas","name":"Turban,Scot"},{"address":"7 Carey Court","latitude":41.3089,"longitude":-73.3637,"us_state":"Connecticut","name":"Pauleau,Suzi"},{"address":"5486 Superior Trail","latitude":36.7991,"longitude":-119.8016,"us_state":"California","name":"Ghidelli,Denny"},{"address":"7317 Dovetail Crossing","latitude":27.9246,"longitude":-80.5235,"us_state":"Florida","name":"Macvey,Hallsy"},{"address":"8 Bayside Way","latitude":36.8282,"longitude":-76.0237,"us_state":"Virginia","name":"Morgen,Rey"},{"address":"5228 Bluestem Terrace","latitude":38.8933,"longitude":-77.0146,"us_state":"District of Columbia","name":"McCarter,Angelo"},{"address":"0 Havey Terrace","latitude":29.9015,"longitude":-95.2848,"us_state":"Texas","name":"Dudgeon,Dallas"},{"address":"19557 Loeprich Crossing","latitude":45.0059,"longitude":-93.1059,"us_state":"Minnesota","name":"Yaakov,Osbourne"},{"address":"3 Porter Plaza","latitude":38.896,"longitude":-77.0177,"us_state":"District of Columbia","name":"Danelet,Noami"},{"address":"96 Merrick Pass","latitude":35.411,"longitude":-97.4388,"us_state":"Oklahoma","name":"Skoughman,Paddy"},{"address":"8 Orin Street","latitude":40.6412,"longitude":-74.0133,"us_state":"New York","name":"Mcsarry,Mendel"},{"address":"25 Northview Trail","latitude":37.1894,"longitude":-121.7053,"us_state":"California","name":"Starmont,Karine"},{"address":"247 Clyde Gallagher Place","latitude":32.9189,"longitude":-96.7751,"us_state":"Texas","name":"McGuigan,Allin"},{"address":"999 Sherman Drive","latitude":44.8055,"longitude":-93.7665,"us_state":"Minnesota","name":"McAndie,Bryan"},{"address":"17158 Prairie Rose Road","latitude":45.5137,"longitude":-122.5569,"us_state":"Oregon","name":"Grigoliis,Fax"},{"address":"41 Helena Junction","latitude":39.9597,"longitude":-75.2024,"us_state":"Pennsylvania","name":"Lope,Helen-elizabeth"},{"address":"55835 Green Ridge Park","latitude":33.8444,"longitude":-84.474,"us_state":"Georgia","name":"MacHostie,Joey"},{"address":"26 Linden Point","latitude":35.2211,"longitude":-85.2091,"us_state":"Tennessee","name":"Harken,Nissa"},{"address":"86706 Independence Hill","latitude":39.1075,"longitude":-84.5257,"us_state":"Ohio","name":"Elwood,Alyson"},{"address":"54 3rd Place","latitude":40.0903,"longitude":-75.041,"us_state":"Pennsylvania","name":"Towey,Ignacius"},{"address":"47582 Lyons Avenue","latitude":36.7464,"longitude":-119.6397,"us_state":"California","name":"Blesli,Nicolea"},{"address":"7 Little Fleur Way","latitude":41.4509,"longitude":-81.619,"us_state":"Ohio","name":"Avo,Shea"},{"address":"6090 Lillian Road","latitude":33.2781,"longitude":-111.7096,"us_state":"Arizona","name":"Sparks,Christophe"},{"address":"89500 Delladonna Court","latitude":33.9335,"longitude":-84.3958,"us_state":"Georgia","name":"Spinella,Patrica"},{"address":"81763 Hansons Court","latitude":47.1591,"longitude":-122.5485,"us_state":"Washington","name":"Flanders,Ethel"},{"address":"1870 Graceland Place","latitude":32.7948,"longitude":-96.7697,"us_state":"Texas","name":"Nardi,Boothe"},{"address":"14689 Sutteridge Crossing","latitude":32.7673,"longitude":-96.7776,"us_state":"Texas","name":"Moat,Laurens"},{"address":"3 Starling Parkway","latitude":32.0175,"longitude":-80.997,"us_state":"Georgia","name":"Matyushenko,Pepillo"},{"address":"5073 American Ash Crossing","latitude":35.0448,"longitude":-106.6893,"us_state":"New Mexico","name":"Rumin,Hall"},{"address":"05 Dakota Trail","latitude":40.8529,"longitude":-96.7943,"us_state":"Nebraska","name":"Hamley,Manya"},{"address":"29652 Moulton Center","latitude":35.0512,"longitude":-106.7269,"us_state":"New Mexico","name":"Stonier,Allen"},{"address":"54664 Tennessee Plaza","latitude":32.7948,"longitude":-96.7697,"us_state":"Texas","name":"Arunowicz,Ramsay"},{"address":"7 Mifflin Crossing","latitude":38.9381,"longitude":-77.086,"us_state":"District of Columbia","name":"Davydoch,Brinn"},{"address":"1634 Oak Valley Crossing","latitude":29.834,"longitude":-95.4342,"us_state":"Texas","name":"Jeannequin,Laure"},{"address":"3 Ridgeview Trail","latitude":39.9671,"longitude":-83.0044,"us_state":"Ohio","name":"Baynom,Suellen"},{"address":"852 Roxbury Park","latitude":41.776,"longitude":-87.6674,"us_state":"Illinois","name":"McCarroll,Lorri"},{"address":"6 Lotheville Way","latitude":30.085,"longitude":-94.2607,"us_state":"Texas","name":"Naismith,Miller"},{"address":"461 Talmadge Point","latitude":39.2627,"longitude":-94.697,"us_state":"Missouri","name":"Hember,Rhiamon"},{"address":"5 Fairfield Hill","latitude":42.2492,"longitude":-71.8108,"us_state":"Massachusetts","name":"Slater,Chickie"},{"address":"677 Monument Center","latitude":26.5747,"longitude":-80.0794,"us_state":"Florida","name":"Jebb,Birk"},{"address":"3 Blue Bill Park Plaza","latitude":32.69,"longitude":-96.9177,"us_state":"Texas","name":"Dik,Sapphira"},{"address":"14 Green Circle","latitude":35.9279,"longitude":-114.9721,"us_state":"Nevada","name":"Yarnall,Dick"},{"address":"7896 Florence Center","latitude":40.7918,"longitude":-74.2452,"us_state":"New Jersey","name":"Tembridge,Marion"},{"address":"6550 Bonner Pass","latitude":42.7325,"longitude":-84.5587,"us_state":"Michigan","name":"Antognoni,Karna"},{"address":"720 Farwell Pass","latitude":43.6783,"longitude":-70.1987,"us_state":"Maine","name":"Lowres,Clo"},{"address":"5924 Kingsford Trail","latitude":40.6451,"longitude":-73.945,"us_state":"New York","name":"Coorington,Aymer"},{"address":"997 Montana Park","latitude":40.0018,"longitude":-75.1179,"us_state":"Pennsylvania","name":"Davidovich,Mayer"},{"address":"31588 Oak Hill","latitude":33.8444,"longitude":-84.474,"us_state":"Georgia","name":"Bartoszewicz,Cecilius"},{"address":"0071 School Drive","latitude":33.0169,"longitude":-116.846,"us_state":"California","name":"Lavies,Brittani"},{"address":"15 Macpherson Parkway","latitude":29.7853,"longitude":-95.1852,"us_state":"Texas","name":"McCumesky,Dacia"},{"address":"148 Sullivan Avenue","latitude":37.0206,"longitude":-76.3377,"us_state":"Virginia","name":"Rustman,Hubert"},{"address":"779 Summit Trail","latitude":28.0081,"longitude":-82.5805,"us_state":"Florida","name":"Smorthit,Humfrid"},{"address":"8482 Dahle Trail","latitude":34.7519,"longitude":-92.3925,"us_state":"Arkansas","name":"Astin,Haslett"},{"address":"9901 Bayside Trail","latitude":40.7324,"longitude":-74.0431,"us_state":"New Jersey","name":"Pach,Martie"},{"address":"172 Northview Point","latitude":32.3401,"longitude":-80.689,"us_state":"South Carolina","name":"Cawdron,Van"},{"address":"903 Bultman Center","latitude":38.3774,"longitude":-121.4444,"us_state":"California","name":"Frondt,Rafaelita"},{"address":"93659 Warbler Avenue","latitude":40.3886,"longitude":-75.9328,"us_state":"Pennsylvania","name":"Strick,Ancell"},{"address":"34544 Ridgeview Street","latitude":39.7617,"longitude":-84.1498,"us_state":"Ohio","name":"Rowlatt,Mariellen"},{"address":"6908 Forest Run Terrace","latitude":36.5799,"longitude":-82.5733,"us_state":"Tennessee","name":"Lakes,Cecilius"},{"address":"26351 Jenna Park","latitude":26.1654,"longitude":-80.2959,"us_state":"Florida","name":"McGookin,Craig"},{"address":"7 Hermina Drive","latitude":33.9335,"longitude":-84.3958,"us_state":"Georgia","name":"Bavidge,Donelle"},{"address":"61621 Goodland Court","latitude":41.7918,"longitude":-72.7188,"us_state":"Connecticut","name":"Muselli,Phillida"},{"address":"5 Carioca Pass","latitude":40.7779,"longitude":-82.4613,"us_state":"Ohio","name":"Gwalter,Bobbette"},{"address":"23998 Riverside Drive","latitude":37.1376,"longitude":-84.1156,"us_state":"Kentucky","name":"Leathlay,Murvyn"},{"address":"52341 Elgar Terrace","latitude":32.4589,"longitude":-93.7143,"us_state":"Louisiana","name":"Peet,Peggi"},{"address":"311 Harper Trail","latitude":35.5514,"longitude":-97.4075,"us_state":"Oklahoma","name":"Siggee,Didi"},{"address":"4339 Blue Bill Park Lane","latitude":35.2017,"longitude":-89.9715,"us_state":"Tennessee","name":"Wrout,Dion"},{"address":"9229 School Park","latitude":33.6062,"longitude":-117.8931,"us_state":"California","name":"Motion,Abey"},{"address":"3 Holy Cross Drive","latitude":33.4061,"longitude":-112.0265,"us_state":"Arizona","name":"Copping,Hillary"},{"address":"46186 Arrowood Plaza","latitude":25.5593,"longitude":-80.3483,"us_state":"Florida","name":"Barrowclough,Niccolo"},{"address":"835 Meadow Valley Road","latitude":39.731,"longitude":-104.9384,"us_state":"Colorado","name":"Zylbermann,Dionisio"},{"address":"17687 Lillian Court","latitude":33.1903,"longitude":-97.1282,"us_state":"Texas","name":"Bamlet,Sloane"},{"address":"50558 Texas Way","latitude":39.7617,"longitude":-84.1498,"us_state":"Ohio","name":"Sanney,Hughie"},{"address":"3 1st Avenue","latitude":39.9845,"longitude":-75.2282,"us_state":"Pennsylvania","name":"Bryenton,Harlen"},{"address":"62 Pierstorff Pass","latitude":42.3823,"longitude":-71.0323,"us_state":"Massachusetts","name":"Fendley,Ashely"},{"address":"280 Loftsgordon Terrace","latitude":30.2407,"longitude":-81.893,"us_state":"Florida","name":"Kalkofen,Umeko"},{"address":"66 Killdeer Center","latitude":39.2847,"longitude":-76.6205,"us_state":"Maryland","name":"Foster,Grayce"},{"address":"7793 Mallard Street","latitude":36.1398,"longitude":-96.0297,"us_state":"Oklahoma","name":"Kahane,Griffie"},{"address":"17416 Glacier Hill Crossing","latitude":40.7918,"longitude":-74.2452,"us_state":"New Jersey","name":"Pennini,Marvin"},{"address":"52 Spaight Plaza","latitude":38.189,"longitude":-85.6768,"us_state":"Kentucky","name":"Yanshinov,Emelina"},{"address":"3 Mitchell Point","latitude":34.006,"longitude":-80.9708,"us_state":"South Carolina","name":"Meriel,Odetta"},{"address":"19732 Truax Street","latitude":33.2765,"longitude":-112.1872,"us_state":"Arizona","name":"Bottom,Thedric"},{"address":"480 Dawn Street","latitude":21.3278,"longitude":-157.8294,"us_state":"Hawaii","name":"Debenham,Lyon"},{"address":"102 Clemons Place","latitude":43.0214,"longitude":-76.1977,"us_state":"New York","name":"Lanceter,Gusty"},{"address":"65 Arizona Crossing","latitude":37.7641,"longitude":-122.1633,"us_state":"California","name":"Entwhistle,Knox"},{"address":"38349 Jackson Terrace","latitude":40.6681,"longitude":-111.9083,"us_state":"Utah","name":"Hamal,Alana"},{"address":"239 Nobel Way","latitude":43.073,"longitude":-89.4528,"us_state":"Wisconsin","name":"Kennsley,Elie"},{"address":"86 Shasta Alley","latitude":35.22,"longitude":-80.7881,"us_state":"North Carolina","name":"Eisak,Wainwright"},{"address":"0308 Maywood Center","latitude":44.4601,"longitude":-88.0074,"us_state":"Wisconsin","name":"Camilio,Bernadette"},{"address":"3 Sunbrook Crossing","latitude":37.7639,"longitude":-97.4269,"us_state":"Kansas","name":"Hargerie,Vere"},{"address":"79 Arkansas Plaza","latitude":43.1577,"longitude":-77.608,"us_state":"New York","name":"Dallender,Betteann"},{"address":"2 Eastwood Road","latitude":32.8067,"longitude":-83.6913,"us_state":"Georgia","name":"McKeowon,Tori"},{"address":"7 Pennsylvania Alley","latitude":27.8918,"longitude":-82.7248,"us_state":"Florida","name":"Griffen,Annabell"},{"address":"75 Forest Dale Pass","latitude":38.9776,"longitude":-77.386,"us_state":"Virginia","name":"Bonhomme,Tann"},{"address":"991 Pierstorff Trail","latitude":36.1398,"longitude":-96.0297,"us_state":"Oklahoma","name":"Red,Moishe"},{"address":"707 Myrtle Plaza","latitude":32.6796,"longitude":-97.3336,"us_state":"Texas","name":"Kitchinghan,Kerr"},{"address":"0727 Northridge Park","latitude":40.7442,"longitude":-89.7184,"us_state":"Illinois","name":"Rycroft,Normand"},{"address":"87218 Sachtjen Street","latitude":30.4455,"longitude":-97.6595,"us_state":"Texas","name":"de Mullett,Corrianne"},{"address":"4 2nd Way","latitude":47.6536,"longitude":-117.4317,"us_state":"Washington","name":"Kensit,Norby"},{"address":"82 Meadow Vale Court","latitude":37.5242,"longitude":-77.4932,"us_state":"Virginia","name":"Fergyson,Burton"},{"address":"8074 Maple Wood Parkway","latitude":39.035,"longitude":-94.3567,"us_state":"Missouri","name":"Scutts,Chalmers"},{"address":"6 Sundown Plaza","latitude":31.6948,"longitude":-106.3,"us_state":"Texas","name":"Brunelli,Putnam"},{"address":"09 Sloan Alley","latitude":30.4124,"longitude":-87.2035,"us_state":"Florida","name":"Geldart,Pierre"},{"address":"47 Eastlawn Place","latitude":37.6374,"longitude":-122.067,"us_state":"California","name":"Ballsdon,Pasquale"},{"address":"90195 Brickson Park Terrace","latitude":28.5559,"longitude":-81.3535,"us_state":"Florida","name":"Scipsey,Roman"},{"address":"742 Vahlen Road","latitude":27.9694,"longitude":-80.6473,"us_state":"Florida","name":"Fredi,Millisent"},{"address":"5 Old Gate Alley","latitude":39.7495,"longitude":-89.606,"us_state":"Illinois","name":"Borles,Angeli"},{"address":"2 Washington Place","latitude":39.1802,"longitude":-84.4204,"us_state":"Ohio","name":"Cayette,Mitchell"},{"address":"3 Ruskin Hill","latitude":45.0159,"longitude":-93.4719,"us_state":"Minnesota","name":"Worvell,Waldo"},{"address":"390 Autumn Leaf Parkway","latitude":39.7388,"longitude":-104.4083,"us_state":"Colorado","name":"Daskiewicz,Christy"},{"address":"61980 Acker Avenue","latitude":45.7246,"longitude":-111.1238,"us_state":"Montana","name":"Cowper,Babette"},{"address":"88 Nobel Crossing","latitude":37.8471,"longitude":-122.2223,"us_state":"California","name":"Begg,Janelle"},{"address":"35393 Cardinal Center","latitude":35.26,"longitude":-80.8042,"us_state":"North Carolina","name":"Hanne,Mersey"},{"address":"66215 Columbus Plaza","latitude":34.8337,"longitude":-92.3289,"us_state":"Arkansas","name":"Braney,Torrey"},{"address":"36 Haas Pass","latitude":38.9007,"longitude":-77.0431,"us_state":"District of Columbia","name":"Eakle,Farr"},{"address":"649 Marquette Park","latitude":39.1668,"longitude":-84.5382,"us_state":"Ohio","name":"Pothergill,Stern"},{"address":"576 Fairfield Lane","latitude":27.777,"longitude":-97.4632,"us_state":"Texas","name":"Barabisch,Lorrie"},{"address":"6 Mayfield Terrace","latitude":38.4386,"longitude":-122.6727,"us_state":"California","name":"Sautter,Dan"},{"address":"13049 Jana Point","latitude":29.834,"longitude":-95.4342,"us_state":"Texas","name":"Jowle,Callie"},{"address":"6 Utah Parkway","latitude":39.2847,"longitude":-76.6205,"us_state":"Maryland","name":"Wingeat,Manda"},{"address":"4 Northland Junction","latitude":37.3866,"longitude":-121.897,"us_state":"California","name":"Espinel,Brendin"},{"address":"2 Rutledge Drive","latitude":37.9651,"longitude":-84.4708,"us_state":"Kentucky","name":"Silliman,Heath"},{"address":"78066 Crownhardt Parkway","latitude":40.7808,"longitude":-73.9772,"us_state":"New York","name":"Huster,Gray"},{"address":"15068 School Plaza","latitude":41.7638,"longitude":-72.673,"us_state":"Connecticut","name":"Hibling,Conroy"},{"address":"8685 Armistice Way","latitude":41.8119,"longitude":-87.6873,"us_state":"Illinois","name":"Whiteford,Dun"},{"address":"72914 Center Circle","latitude":29.4375,"longitude":-98.4616,"us_state":"Texas","name":"McOwen,Nichole"},{"address":"14 Rockefeller Terrace","latitude":44.8055,"longitude":-93.7665,"us_state":"Minnesota","name":"Husband,Culver"},{"address":"87701 Sullivan Alley","latitude":47.2325,"longitude":-122.3594,"us_state":"Washington","name":"Comer,Maryann"},{"address":"9 Magdeline Junction","latitude":38.8318,"longitude":-77.2888,"us_state":"Virginia","name":"Spores,Ricard"},{"address":"7 Milwaukee Road","latitude":41.2064,"longitude":-95.9953,"us_state":"Nebraska","name":"Steven,Howey"},{"address":"5 Charing Cross Way","latitude":47.6536,"longitude":-117.4317,"us_state":"Washington","name":"Lemmens,Keely"},{"address":"7 Melrose Crossing","latitude":33.6013,"longitude":-111.8867,"us_state":"Arizona","name":"Keppie,Drusilla"},{"address":"2631 Ludington Pass","latitude":43.5851,"longitude":-116.2191,"us_state":"Idaho","name":"Turgoose,Dot"},{"address":"5 Cottonwood Park","latitude":39.969,"longitude":-83.0114,"us_state":"Ohio","name":"Stoeck,Urbanus"},{"address":"5 Mandrake Alley","latitude":42.9255,"longitude":-78.7481,"us_state":"New York","name":"Bozier,Randal"},{"address":"8060 Magdeline Alley","latitude":40.5051,"longitude":-80.1155,"us_state":"Pennsylvania","name":"Whinray,Alard"},{"address":"79554 Novick Court","latitude":37.9971,"longitude":-87.575,"us_state":"Indiana","name":"Banner,Patrick"},{"address":"9 Meadow Valley Pass","latitude":30.6589,"longitude":-88.178,"us_state":"Alabama","name":"Meth,Gene"},{"address":"583 Stephen Trail","latitude":38.6171,"longitude":-90.4504,"us_state":"Missouri","name":"Thebeau,Darcee"},{"address":"07881 American Ash Trail","latitude":35.26,"longitude":-80.8042,"us_state":"North Carolina","name":"Ingledow,Arri"},{"address":"712 Pennsylvania Parkway","latitude":40.4614,"longitude":-88.953,"us_state":"Illinois","name":"Lindup,Grove"},{"address":"2 Paget Hill","latitude":37.6333,"longitude":-97.425,"us_state":"Kansas","name":"Thoumas,Ronni"},{"address":"1951 East Center","latitude":30.4481,"longitude":-87.2589,"us_state":"Florida","name":"Haddington,Miner"},{"address":"76 Fuller Center","latitude":37.9577,"longitude":-121.2897,"us_state":"California","name":"Skoyles,Freddy"},{"address":"676 Messerschmidt Center","latitude":26.1457,"longitude":-80.4483,"us_state":"Florida","name":"Spileman,Pru"},{"address":"60 Crescent Oaks Way","latitude":42.1827,"longitude":-80.0649,"us_state":"Pennsylvania","name":"Diwell,Randolf"},{"address":"726 Sommers Lane","latitude":40.8247,"longitude":-73.894,"us_state":"New York","name":"Ellcome,Joane"},{"address":"714 Kennedy Avenue","latitude":29.7575,"longitude":-95.3668,"us_state":"Texas","name":"Peile,Carie"},{"address":"146 Straubel Avenue","latitude":41.0114,"longitude":-74.3048,"us_state":"New Jersey","name":"McMorland,Terrence"},{"address":"10 Pawling Center","latitude":43.6783,"longitude":-70.1987,"us_state":"Maine","name":"Kalderon,Lauree"},{"address":"1084 Florence Lane","latitude":33.1903,"longitude":-97.1282,"us_state":"Texas","name":"Finlry,Darin"},{"address":"05 Moose Avenue","latitude":25.7341,"longitude":-80.4068,"us_state":"Florida","name":"Mead,Durward"},{"address":"1121 Doe Crossing Terrace","latitude":39.1848,"longitude":-84.3448,"us_state":"Ohio","name":"Dudbridge,Rowland"},{"address":"0 Mitchell Crossing","latitude":33.0169,"longitude":-116.846,"us_state":"California","name":"Lomasny,Kilian"},{"address":"1 Stoughton Crossing","latitude":35.1885,"longitude":-101.8165,"us_state":"Texas","name":"Hartus,Eddie"},{"address":"47936 Continental Place","latitude":43.0696,"longitude":-89.4239,"us_state":"Wisconsin","name":"Bagnal,Glynn"},{"address":"5166 Pierstorff Crossing","latitude":35.7908,"longitude":-78.653,"us_state":"North Carolina","name":"Gilbey,Lorrie"},{"address":"55062 Graceland Avenue","latitude":44.4601,"longitude":-88.0074,"us_state":"Wisconsin","name":"Kem,Celestyn"},{"address":"1514 Susan Junction","latitude":40.3086,"longitude":-76.8464,"us_state":"Pennsylvania","name":"Satterley,Sandor"},{"address":"9 Northridge Lane","latitude":29.7687,"longitude":-95.3867,"us_state":"Texas","name":"Hannam,Irina"},{"address":"5944 Utah Point","latitude":38.189,"longitude":-85.6768,"us_state":"Kentucky","name":"Padula,Boone"},{"address":"396 Cascade Park","latitude":38.8808,"longitude":-77.113,"us_state":"Virginia","name":"Scottrell,Ludovika"},{"address":"23158 Northridge Alley","latitude":35.9901,"longitude":-83.9622,"us_state":"Tennessee","name":"Ivashchenko,Georgi"},{"address":"156 Hauk Way","latitude":33.3538,"longitude":-86.8254,"us_state":"Alabama","name":"Samart,Abbe"},{"address":"3 Pepper Wood Avenue","latitude":32.3766,"longitude":-95.1252,"us_state":"Texas","name":"Petrina,Wade"},{"address":"626 Lakeland Circle","latitude":29.4237,"longitude":-98.4925,"us_state":"Texas","name":"Pallister,Lon"},{"address":"797 Steensland Hill","latitude":38.8932,"longitude":-77.049,"us_state":"District of Columbia","name":"Willimot,Terencio"},{"address":"96 Browning Park","latitude":33.9443,"longitude":-83.3891,"us_state":"Georgia","name":"Shoppee,Arlan"},{"address":"67926 Rockefeller Park","latitude":43.1577,"longitude":-77.608,"us_state":"New York","name":"Soppeth,Elga"},{"address":"3832 Cherokee Crossing","latitude":36.8686,"longitude":-76.3552,"us_state":"Virginia","name":"Tuckwood,Zelma"},{"address":"86 Chinook Hill","latitude":40.8265,"longitude":-73.9383,"us_state":"New York","name":"Stoakley,Melody"},{"address":"243 Schurz Trail","latitude":33.571,"longitude":-101.8507,"us_state":"Texas","name":"Elsdon,David"},{"address":"52 Maple Wood Center","latitude":38.6531,"longitude":-90.2435,"us_state":"Missouri","name":"Stacey,Vanda"},{"address":"10191 Basil Terrace","latitude":40.7442,"longitude":-89.7184,"us_state":"Illinois","name":"Cockram,Rickert"},{"address":"8 Iowa Place","latitude":32.6076,"longitude":-93.7526,"us_state":"Louisiana","name":"Hamner,Gibb"},{"address":"89 Sunbrook Street","latitude":41.028,"longitude":-81.4632,"us_state":"Ohio","name":"Holdin,Helen"},{"address":"51 Moland Alley","latitude":40.7628,"longitude":-73.9785,"us_state":"New York","name":"McVeigh,Steffane"},{"address":"7860 Vernon Court","latitude":38.3774,"longitude":-121.4444,"us_state":"California","name":"Scahill,Frederic"},{"address":"41 Cambridge Trail","latitude":36.1378,"longitude":-115.3261,"us_state":"Nevada","name":"Dellenbach,Haven"},{"address":"673 Grasskamp Hill","latitude":41.9453,"longitude":-87.7474,"us_state":"Illinois","name":"Gonnard,Carling"},{"address":"5 Parkside Junction","latitude":26.6599,"longitude":-81.8934,"us_state":"Florida","name":"Wylam,Boycie"},{"address":"8 Hudson Street","latitude":32.7714,"longitude":-97.2915,"us_state":"Texas","name":"Impleton,Lilas"},{"address":"9516 Melody Street","latitude":39.7434,"longitude":-75.5827,"us_state":"Delaware","name":"Breckon,Morlee"},{"address":"3865 Gerald Center","latitude":30.1244,"longitude":-93.1835,"us_state":"Louisiana","name":"Vaskov,Avram"},{"address":"48 Vernon Alley","latitude":32.491,"longitude":-84.8741,"us_state":"Georgia","name":"Lubbock,Muffin"},{"address":"31408 Eagan Avenue","latitude":37.5593,"longitude":-77.4471,"us_state":"Virginia","name":"MacColl,Bonnie"},{"address":"2497 Hanover Terrace","latitude":26.0663,"longitude":-80.3339,"us_state":"Florida","name":"Vargas,Engelbert"},{"address":"8 Dovetail Road","latitude":34.84,"longitude":-115.9671,"us_state":"California","name":"Bottby,Lamont"},{"address":"03 Badeau Pass","latitude":40.7548,"longitude":-73.6018,"us_state":"New York","name":"Alp,Robinette"},{"address":"53 Derek Street","latitude":40.4344,"longitude":-80.0248,"us_state":"Pennsylvania","name":"Onions,Gearard"},{"address":"816 Hoffman Place","latitude":31.6948,"longitude":-106.3,"us_state":"Texas","name":"Goggan,Mile"},{"address":"52640 Portage Drive","latitude":41.6868,"longitude":-83.4394,"us_state":"Ohio","name":"Ewdale,Cary"},{"address":"51138 Calypso Center","latitude":33.413,"longitude":-82.1337,"us_state":"Georgia","name":"Barke,Lula"},{"address":"06 Garrison Avenue","latitude":43.4599,"longitude":-116.244,"us_state":"Idaho","name":"Izod,Nanine"},{"address":"741 Sage Point","latitude":42.3615,"longitude":-71.0604,"us_state":"Massachusetts","name":"Walhedd,Cherida"},{"address":"0 Saint Paul Center","latitude":37.8044,"longitude":-122.2698,"us_state":"California","name":"Kittless,Norry"},{"address":"3962 Oriole Street","latitude":30.2407,"longitude":-81.893,"us_state":"Florida","name":"Dumingos,Sigismondo"},{"address":"00456 Toban Center","latitude":40.7664,"longitude":-74.1695,"us_state":"New Jersey","name":"Beddis,Ashly"},{"address":"46497 Blackbird Trail","latitude":33.9982,"longitude":-84.3411,"us_state":"Georgia","name":"Calvert,Daven"},{"address":"3 Kingsford Place","latitude":29.9335,"longitude":-95.3981,"us_state":"Texas","name":"Chadwen,Mickie"},{"address":"31 Dovetail Pass","latitude":34.8497,"longitude":-82.4538,"us_state":"South Carolina","name":"Veneur,Roman"},{"address":"84 Sunbrook Point","latitude":31.9701,"longitude":-111.8907,"us_state":"Arizona","name":"Purcer,Stephan"},{"address":"753 4th Avenue","latitude":38.0283,"longitude":-84.4715,"us_state":"Kentucky","name":"Letixier,Ardis"},{"address":"9126 Melrose Park","latitude":26.5529,"longitude":-81.9486,"us_state":"Florida","name":"Taggett,Lexie"},{"address":"925 Sachs Circle","latitude":42.6149,"longitude":-73.9708,"us_state":"New York","name":"Ganning,Golda"},{"address":"89 Golf Terrace","latitude":40.2805,"longitude":-74.712,"us_state":"New Jersey","name":"Wells,Saunders"},{"address":"8227 Maywood Street","latitude":40.4344,"longitude":-80.0248,"us_state":"Pennsylvania","name":"Walkley,Jelene"},{"address":"2 Maywood Hill","latitude":33.7866,"longitude":-118.2987,"us_state":"California","name":"Iwanowski,Linell"},{"address":"17312 Summerview Street","latitude":38.3774,"longitude":-121.4444,"us_state":"California","name":"Heine,Gayelord"},{"address":"51 Norway Maple Pass","latitude":39.3093,"longitude":-76.6699,"us_state":"Maryland","name":"Batterton,Costa"},{"address":"41661 Sutherland Place","latitude":47.6964,"longitude":-117.4399,"us_state":"Washington","name":"Hirschmann,Thoma"},{"address":"23 Lake View Plaza","latitude":41.5968,"longitude":-86.293,"us_state":"Indiana","name":"Paddle,Natka"},{"address":"150 Golf View Trail","latitude":38.3774,"longitude":-121.4444,"us_state":"California","name":"Longcaster,Darius"},{"address":"0932 Kim Road","latitude":47.6564,"longitude":-122.3048,"us_state":"Washington","name":"Harbisher,Brigitta"},{"address":"7 Summer Ridge Junction","latitude":39.0429,"longitude":-95.7697,"us_state":"Kansas","name":"Richards,Rae"},{"address":"84 Dapin Hill","latitude":32.7948,"longitude":-96.7697,"us_state":"Texas","name":"McGoon,Bartholemy"},{"address":"4 Clyde Gallagher Point","latitude":35.284,"longitude":-81.1897,"us_state":"North Carolina","name":"Hammant,Murry"},{"address":"93114 Twin Pines Place","latitude":38.9067,"longitude":-77.0312,"us_state":"District of Columbia","name":"Brassill,Evangelin"},{"address":"581 Alpine Road","latitude":44.9034,"longitude":-93.374,"us_state":"Minnesota","name":"Linskill,Galven"},{"address":"06 2nd Road","latitude":41.028,"longitude":-81.4632,"us_state":"Ohio","name":"Kipping,Joice"},{"address":"62 Dixon Pass","latitude":41.0938,"longitude":-85.0707,"us_state":"Indiana","name":"Spere,Sheffield"},{"address":"94 Emmet Street","latitude":39.7388,"longitude":-104.4083,"us_state":"Colorado","name":"Cammish,Mychal"},{"address":"4 Ridgeview Hill","latitude":26.1443,"longitude":-80.2069,"us_state":"Florida","name":"Bullcock,Trudey"},{"address":"13834 Oriole Terrace","latitude":27.872,"longitude":-82.4388,"us_state":"Florida","name":"Gane,Gannon"},{"address":"767 Holmberg Center","latitude":33.8444,"longitude":-84.474,"us_state":"Georgia","name":"Scholtis,Donn"},{"address":"1 Onsgard Alley","latitude":38.2968,"longitude":-81.5547,"us_state":"West Virginia","name":"Hauxby,Celestyna"},{"address":"52964 Shelley Plaza","latitude":39.7495,"longitude":-89.606,"us_state":"Illinois","name":"Bayfield,Evyn"},{"address":"70778 Sachs Way","latitude":33.9328,"longitude":-84.556,"us_state":"Georgia","name":"Courage,Harley"},{"address":"8 Briar Crest Parkway","latitude":30.0877,"longitude":-89.8462,"us_state":"Louisiana","name":"Betancourt,Marlow"},{"address":"18 Sommers Point","latitude":42.8161,"longitude":-73.9398,"us_state":"New York","name":"Hixley,Renelle"},{"address":"70 Stone Corner Avenue","latitude":40.6669,"longitude":-73.9828,"us_state":"New York","name":"Sainter,Keir"},{"address":"6378 Kipling Park","latitude":34.1231,"longitude":-79.6893,"us_state":"South Carolina","name":"Marjanski,Katrine"},{"address":"831 Towne Point","latitude":36.7464,"longitude":-119.6397,"us_state":"California","name":"Mallett,Mickie"},{"address":"8 Hintze Road","latitude":34.1446,"longitude":-117.3013,"us_state":"California","name":"Gillingham,Ring"},{"address":"3 Hooker Park","latitude":39.4336,"longitude":-87.4101,"us_state":"Indiana","name":"Manlow,Gavrielle"},{"address":"65 Carey Terrace","latitude":39.361,"longitude":-76.5891,"us_state":"Maryland","name":"Janzen,Rudiger"},{"address":"7816 Amoth Lane","latitude":27.777,"longitude":-97.4632,"us_state":"Texas","name":"Stovin,Erny"},{"address":"07686 Cherokee Court","latitude":26.2785,"longitude":-80.1157,"us_state":"Florida","name":"Berkely,Kinsley"},{"address":"4808 Muir Park","latitude":40.6412,"longitude":-74.0133,"us_state":"New York","name":"Schoffel,Morton"},{"address":"683 Schurz Avenue","latitude":40.6278,"longitude":-75.3928,"us_state":"Pennsylvania","name":"Vossgen,Fanny"},{"address":"1081 Glacier Hill Lane","latitude":37.5422,"longitude":-97.2871,"us_state":"Kansas","name":"Stemp,Gayle"},{"address":"1 Schlimgen Terrace","latitude":29.3977,"longitude":-98.4658,"us_state":"Texas","name":"Harsnep,Elise"},{"address":"6489 Meadow Valley Drive","latitude":40.7105,"longitude":-74.0163,"us_state":"New York","name":"Andreev,Bird"},{"address":"30872 Duke Pass","latitude":28.5663,"longitude":-81.2608,"us_state":"Florida","name":"Carlson,Sandor"},{"address":"139 Oakridge Crossing","latitude":26.5529,"longitude":-81.9486,"us_state":"Florida","name":"Allingham,Siegfried"},{"address":"77 Green Ridge Hill","latitude":30.5159,"longitude":-91.0804,"us_state":"Louisiana","name":"Stanfield,Davidson"},{"address":"4 Mifflin Avenue","latitude":47.6564,"longitude":-122.3048,"us_state":"Washington","name":"Blowfelde,Keen"},{"address":"3313 Melrose Terrace","latitude":40.0422,"longitude":-75.0244,"us_state":"Pennsylvania","name":"Boakes,Rosaline"},{"address":"8578 Logan Place","latitude":45.0059,"longitude":-93.1059,"us_state":"Minnesota","name":"Foxten,Angie"},{"address":"52706 Dottie Crossing","latitude":39.1075,"longitude":-84.5257,"us_state":"Ohio","name":"Olford,Carine"},{"address":"6940 Melrose Way","latitude":38.8377,"longitude":-104.837,"us_state":"Colorado","name":"Kretschmer,Shaylynn"},{"address":"94 Shelley Lane","latitude":36.8686,"longitude":-76.3552,"us_state":"Virginia","name":"Clemmensen,Hoebart"},{"address":"92 Sachtjen Court","latitude":41.8119,"longitude":-87.6873,"us_state":"Illinois","name":"Vousden,Karine"},{"address":"712 Rutledge Plaza","latitude":38.4631,"longitude":-122.99,"us_state":"California","name":"Wards,Lyn"},{"address":"6 Forest Dale Pass","latitude":38.8933,"longitude":-77.0146,"us_state":"District of Columbia","name":"Davidavidovics,Erasmus"},{"address":"18 Kropf Drive","latitude":30.0505,"longitude":-95.4695,"us_state":"Texas","name":"Baldick,Nilson"},{"address":"25977 Algoma Point","latitude":36.7957,"longitude":-76.0126,"us_state":"Virginia","name":"Blabey,Mercy"},{"address":"142 Macpherson Hill","latitude":37.8471,"longitude":-122.2223,"us_state":"California","name":"Brumbye,Shane"},{"address":"8 Southridge Trail","latitude":40.6681,"longitude":-111.9083,"us_state":"Utah","name":"Reddick,Novelia"},{"address":"641 Coolidge Junction","latitude":42.6149,"longitude":-73.9708,"us_state":"New York","name":"Wallentin,Winslow"},{"address":"24 Pond Pass","latitude":39.1668,"longitude":-84.5382,"us_state":"Ohio","name":"Tomaszewicz,Maude"},{"address":"96 Kropf Street","latitude":38.5814,"longitude":-90.2625,"us_state":"Missouri","name":"Gooddie,Stanton"},{"address":"934 Bayside Parkway","latitude":31.6948,"longitude":-106.3,"us_state":"Texas","name":"Bertomeu,Emiline"},{"address":"93 Marcy Crossing","latitude":45.0059,"longitude":-93.1059,"us_state":"Minnesota","name":"Pizzey,Thaddeus"},{"address":"589 Myrtle Road","latitude":36.0275,"longitude":-80.2073,"us_state":"North Carolina","name":"Gartenfeld,Reginauld"},{"address":"05 Bay Terrace","latitude":39.2847,"longitude":-76.6205,"us_state":"Maryland","name":"Pieracci,Harald"},{"address":"13 Holmberg Trail","latitude":32.7673,"longitude":-96.7776,"us_state":"Texas","name":"Pascho,Engelbert"},{"address":"749 Graedel Center","latitude":39.9772,"longitude":-75.2545,"us_state":"Pennsylvania","name":"Kenningley,Starlene"},{"address":"5 Westport Point","latitude":33.8444,"longitude":-84.474,"us_state":"Georgia","name":"Cauley,Pierette"},{"address":"00258 Superior Terrace","latitude":44.4601,"longitude":-88.0074,"us_state":"Wisconsin","name":"Harlin,Ida"},{"address":"51 Dovetail Avenue","latitude":40.8063,"longitude":-96.6545,"us_state":"Nebraska","name":"Roskruge,Steffen"},{"address":"38 Springs Trail","latitude":61.1089,"longitude":-149.4403,"us_state":"Alaska","name":"Sharrocks,Weber"},{"address":"59553 Meadow Vale Court","latitude":45.6644,"longitude":-122.5212,"us_state":"Washington","name":"Leary,Clyde"},{"address":"2565 Trailsway Alley","latitude":42.2868,"longitude":-71.071,"us_state":"Massachusetts","name":"Flecknell,Marijo"},{"address":"053 Toban Crossing","latitude":40.0903,"longitude":-75.041,"us_state":"Pennsylvania","name":"Merryman,Wood"},{"address":"06 Debs Point","latitude":36.1378,"longitude":-115.3261,"us_state":"Nevada","name":"Izakof,Marieann"},{"address":"57358 Morningstar Pass","latitude":40.7808,"longitude":-73.9772,"us_state":"New York","name":"Bernard,Ericka"},{"address":"3920 Reinke Hill","latitude":30.3704,"longitude":-81.5864,"us_state":"Florida","name":"Follis,Janka"},{"address":"8738 American Ash Street","latitude":30.3264,"longitude":-97.7713,"us_state":"Texas","name":"Cronkshaw,Liana"},{"address":"64306 Buell Drive","latitude":45.0803,"longitude":-93.0875,"us_state":"Minnesota","name":"Pawlaczyk,Even"},{"address":"5 Alpine Pass","latitude":34.7784,"longitude":-86.6091,"us_state":"Alabama","name":"Prestwich,Finlay"},{"address":"032 Oakridge Alley","latitude":33.9328,"longitude":-84.556,"us_state":"Georgia","name":"Pitway,Howard"},{"address":"76 Larry Pass","latitude":30.1949,"longitude":-85.6727,"us_state":"Florida","name":"Shapter,Debera"},{"address":"6002 Waywood Drive","latitude":33.1428,"longitude":-97.0727,"us_state":"Texas","name":"Parradye,Obed"},{"address":"22 Lake View Park","latitude":47.116,"longitude":-114.0498,"us_state":"Montana","name":"Weafer,Hilton"},{"address":"6247 Randy Terrace","latitude":40.6681,"longitude":-111.9083,"us_state":"Utah","name":"Osborne,Hermina"},{"address":"4 Fulton Parkway","latitude":35.2017,"longitude":-89.9715,"us_state":"Tennessee","name":"Bernardoux,Alexandro"},{"address":"80 Melby Road","latitude":40.6924,"longitude":-73.9666,"us_state":"New York","name":"Brookesbie,Herculie"},{"address":"8976 Cambridge Parkway","latitude":31.6948,"longitude":-106.3,"us_state":"Texas","name":"Exon,Camila"},{"address":"50306 Haas Way","latitude":29.834,"longitude":-95.4342,"us_state":"Texas","name":"O'Moylane,Brit"},{"address":"9 Duke Terrace","latitude":32.0053,"longitude":-81.0477,"us_state":"Georgia","name":"Van Baaren,Jermaine"},{"address":"84 Harper Place","latitude":31.6948,"longitude":-106.3,"us_state":"Texas","name":"Madders,Mervin"},{"address":"68197 Katie Junction","latitude":39.734,"longitude":-105.0259,"us_state":"Colorado","name":"Beavington,Lorelle"},{"address":"37633 Schurz Place","latitude":32.2138,"longitude":-110.824,"us_state":"Arizona","name":"Medforth,Laverne"},{"address":"57212 Kim Center","latitude":39.9274,"longitude":-104.9548,"us_state":"Colorado","name":"Keast,Dudley"},{"address":"887 Garrison Junction","latitude":31.7705,"longitude":-106.5048,"us_state":"Texas","name":"McShirrie,Verna"},{"address":"11 Rockefeller Court","latitude":40.04,"longitude":-86.8936,"us_state":"Indiana","name":"Seiler,Emmaline"},{"address":"5865 Dayton Junction","latitude":35.4369,"longitude":-119.0679,"us_state":"California","name":"Alexis,Garvy"},{"address":"3931 Forster Parkway","latitude":30.033,"longitude":-89.8826,"us_state":"Louisiana","name":"Daily,Cody"},{"address":"93 Dovetail Avenue","latitude":40.8956,"longitude":-81.433,"us_state":"Ohio","name":"Ellings,Lil"},{"address":"5 Trailsway Parkway","latitude":35.5514,"longitude":-97.4075,"us_state":"Oklahoma","name":"Lehrmann,Alex"},{"address":"78678 Hudson Trail","latitude":30.3752,"longitude":-97.9007,"us_state":"Texas","name":"Tallman,Cary"},{"address":"0 Dayton Lane","latitude":29.7179,"longitude":-95.4263,"us_state":"Texas","name":"Southcoat,Elvera"},{"address":"00 Sugar Way","latitude":41.2553,"longitude":-111.9567,"us_state":"Utah","name":"Heersema,Domini"},{"address":"99786 Sugar Terrace","latitude":30.5159,"longitude":-91.0804,"us_state":"Louisiana","name":"Tebboth,Jose"},{"address":"69064 Bluejay Pass","latitude":42.1109,"longitude":-80.1534,"us_state":"Pennsylvania","name":"Mattheissen,Lona"},{"address":"26536 Fairview Hill","latitude":45.6644,"longitude":-122.5212,"us_state":"Washington","name":"Gribble,Sibilla"},{"address":"238 Lillian Plaza","latitude":37.7848,"longitude":-122.7278,"us_state":"California","name":"Hothersall,Fanni"},{"address":"4 Mariners Cove Place","latitude":47.7161,"longitude":-122.3004,"us_state":"Washington","name":"Delmonti,Fanchon"},{"address":"0082 Corben Circle","latitude":42.4981,"longitude":-83.2058,"us_state":"Michigan","name":"Dubery,Sophey"},{"address":"75055 Swallow Pass","latitude":39.47,"longitude":-77.3921,"us_state":"Maryland","name":"Lipsett,Herc"},{"address":"85071 Comanche Circle","latitude":33.7406,"longitude":-84.5545,"us_state":"Georgia","name":"Parren,Virginie"},{"address":"488 Sycamore Lane","latitude":32.4589,"longitude":-93.7143,"us_state":"Louisiana","name":"Chisholme,Sollie"},{"address":"31 Maryland Drive","latitude":38.6531,"longitude":-90.2435,"us_state":"Missouri","name":"Serrels,Abie"},{"address":"7 Muir Avenue","latitude":39.739,"longitude":-84.0856,"us_state":"Ohio","name":"Cainey,Uriel"},{"address":"9259 Dexter Avenue","latitude":38.8933,"longitude":-77.0146,"us_state":"District of Columbia","name":"Runchman,Ebonee"},{"address":"33433 Lunder Point","latitude":38.9033,"longitude":-92.1022,"us_state":"Missouri","name":"Skelly,Elli"},{"address":"4610 Farmco Junction","latitude":39.5645,"longitude":-75.597,"us_state":"Delaware","name":"Hoult,Roseann"},{"address":"93 Morning Pass","latitude":44.9608,"longitude":-93.1216,"us_state":"Minnesota","name":"Veldman,Dyanna"},{"address":"563 Northview Alley","latitude":33.3072,"longitude":-87.5859,"us_state":"Alabama","name":"Shatliff,Callida"},{"address":"729 Schurz Center","latitude":39.9379,"longitude":-75.1794,"us_state":"Pennsylvania","name":"Werlock,Thacher"},{"address":"40 Debra Pass","latitude":27.8918,"longitude":-82.7248,"us_state":"Florida","name":"Plak,Pedro"},{"address":"02 Mallory Terrace","latitude":31.6631,"longitude":-106.1401,"us_state":"Texas","name":"Lewcock,Evan"},{"address":"1 Cottonwood Plaza","latitude":29.9686,"longitude":-90.0646,"us_state":"Louisiana","name":"Blakemore,Dniren"},{"address":"279 Straubel Circle","latitude":37.4009,"longitude":-79.1785,"us_state":"Virginia","name":"Dinse,Cornela"},{"address":"11269 Cordelia Plaza","latitude":32.7673,"longitude":-96.7776,"us_state":"Texas","name":"Joss,Ernest"},{"address":"11 Prairieview Crossing","latitude":35.7977,"longitude":-78.6253,"us_state":"North Carolina","name":"Smalcombe,Chad"},{"address":"36 Claremont Crossing","latitude":38.3774,"longitude":-121.4444,"us_state":"California","name":"McVicar,Angele"},{"address":"41581 Fair Oaks Park","latitude":39.0966,"longitude":-94.7495,"us_state":"Kansas","name":"Reford,Claire"},{"address":"2544 Delladonna Park","latitude":38.189,"longitude":-85.6768,"us_state":"Kentucky","name":"Thurborn,Sylvester"},{"address":"7 Westridge Road","latitude":32.3218,"longitude":-90.1771,"us_state":"Mississippi","name":"Freyne,Myrna"},{"address":"31012 Meadow Valley Court","latitude":61.1089,"longitude":-149.4403,"us_state":"Alaska","name":"Otterwell,Ingmar"},{"address":"42 Garrison Lane","latitude":41.3087,"longitude":-72.9271,"us_state":"Connecticut","name":"Maghull,Luca"},{"address":"2973 Portage Road","latitude":30.2023,"longitude":-92.0188,"us_state":"Louisiana","name":"Simion,Nathaniel"},{"address":"84798 Aberg Crossing","latitude":40.0903,"longitude":-75.041,"us_state":"Pennsylvania","name":"Coakley,Major"},{"address":"988 Butterfield Parkway","latitude":31.6948,"longitude":-106.3,"us_state":"Texas","name":"MacMychem,Selina"},{"address":"1 Twin Pines Plaza","latitude":33.783,"longitude":-118.0256,"us_state":"California","name":"Becker,Calli"},{"address":"31888 Derek Street","latitude":42.2464,"longitude":-85.0045,"us_state":"Michigan","name":"Wordington,Marianna"},{"address":"4 Riverside Way","latitude":33.2765,"longitude":-112.1872,"us_state":"Arizona","name":"Ordelt,Salvidor"},{"address":"57 Fuller Court","latitude":34.7784,"longitude":-86.6091,"us_state":"Alabama","name":"McGlade,Ashlie"},{"address":"164 Surrey Place","latitude":45.5806,"longitude":-122.3748,"us_state":"Oregon","name":"Mowbury,Alejoa"},{"address":"1526 Larry Park","latitude":42.1707,"longitude":-72.6048,"us_state":"Massachusetts","name":"Sergeant,Courtney"},{"address":"1295 Northview Place","latitude":37.7641,"longitude":-122.1633,"us_state":"California","name":"Legister,Ber"},{"address":"26156 Hooker Pass","latitude":39.1678,"longitude":-119.7764,"us_state":"Nevada","name":"Coldbathe,Barby"},{"address":"54407 Loomis Park","latitude":33.5452,"longitude":-86.6655,"us_state":"Alabama","name":"Burleton,Everard"},{"address":"3952 Corben Court","latitude":27.8918,"longitude":-82.7248,"us_state":"Florida","name":"Caldairou,Jaclyn"},{"address":"36669 Calypso Terrace","latitude":47.1441,"longitude":-122.4434,"us_state":"Washington","name":"O'Tuohy,Erastus"},{"address":"12781 Cambridge Place","latitude":33.8444,"longitude":-84.474,"us_state":"Georgia","name":"Snoddy,Hazlett"},{"address":"915 Amoth Avenue","latitude":30.6568,"longitude":-97.6026,"us_state":"Texas","name":"Reolfo,Stanton"},{"address":"43134 Dixon Junction","latitude":30.4067,"longitude":-88.9211,"us_state":"Mississippi","name":"Hardwich,Giffer"},{"address":"41 Swallow Trail","latitude":40.081,"longitude":-82.9383,"us_state":"Ohio","name":"Santer,Noah"},{"address":"1 Paget Circle","latitude":40.7506,"longitude":-73.9894,"us_state":"New York","name":"Timbs,Othilia"},{"address":"1172 Independence Place","latitude":30.3264,"longitude":-97.7713,"us_state":"Texas","name":"Maly,Keri"},{"address":"6307 Jackson Pass","latitude":32.7948,"longitude":-96.7697,"us_state":"Texas","name":"Eakin,Felizio"},{"address":"428 Dorton Avenue","latitude":34.7059,"longitude":-86.6165,"us_state":"Alabama","name":"Lots,Heloise"},{"address":"63803 Meadow Valley Way","latitude":36.0777,"longitude":-79.9086,"us_state":"North Carolina","name":"Admans,Hugh"},{"address":"6 Grim Avenue","latitude":40.1399,"longitude":-88.1961,"us_state":"Illinois","name":"Cannell,Jack"},{"address":"558 Merchant Road","latitude":31.7674,"longitude":-106.4304,"us_state":"Texas","name":"Streat,Gilda"},{"address":"87 Weeping Birch Point","latitude":35.9279,"longitude":-114.9721,"us_state":"Nevada","name":"Hursthouse,Nichol"},{"address":"33506 Maple Wood Junction","latitude":32.3401,"longitude":-80.689,"us_state":"South Carolina","name":"Danniel,Iris"},{"address":"08 Goodland Road","latitude":31.6948,"longitude":-106.3,"us_state":"Texas","name":"Blinder,Goraud"},{"address":"12 Anzinger Plaza","latitude":32.3386,"longitude":-90.1708,"us_state":"Mississippi","name":"Bowles,David"},{"address":"0 Pleasure Parkway","latitude":43.1367,"longitude":-77.6481,"us_state":"New York","name":"Mockett,Shandeigh"},{"address":"3 Comanche Circle","latitude":29.6518,"longitude":-95.4854,"us_state":"Texas","name":"Sharrard,Fedora"},{"address":"655 Shelley Lane","latitude":39.035,"longitude":-94.3567,"us_state":"Missouri","name":"MacAdam,Andrej"},{"address":"196 Farmco Plaza","latitude":29.834,"longitude":-95.4342,"us_state":"Texas","name":"Chisholm,Ferne"},{"address":"0544 Fulton Point","latitude":29.4189,"longitude":-98.6895,"us_state":"Texas","name":"Blooman,Niles"},{"address":"1 Roth Alley","latitude":36.8787,"longitude":-76.2604,"us_state":"Virginia","name":"Peacham,Andi"},{"address":"201 Anhalt Parkway","latitude":33.7866,"longitude":-118.2987,"us_state":"California","name":"Dizlie,Glynis"},{"address":"25 Commercial Lane","latitude":64.8544,"longitude":-147.8469,"us_state":"Alaska","name":"Wickstead,Marguerite"},{"address":"76864 Ludington Alley","latitude":40.8063,"longitude":-96.6545,"us_state":"Nebraska","name":"Belamy,Allie"},{"address":"8 Autumn Leaf Terrace","latitude":30.671,"longitude":-88.1267,"us_state":"Alabama","name":"Dagworthy,Dotty"},{"address":"78 Florence Court","latitude":33.9754,"longitude":-118.417,"us_state":"California","name":"Andrasch,Willabella"},{"address":"381 Buena Vista Lane","latitude":29.7575,"longitude":-95.3668,"us_state":"Texas","name":"Glassard,Kellen"},{"address":"36387 Meadow Valley Point","latitude":34.1872,"longitude":-118.3865,"us_state":"California","name":"Redfield,Brent"},{"address":"7715 Sunfield Parkway","latitude":42.7371,"longitude":-84.5244,"us_state":"Michigan","name":"Leet,Tedmund"},{"address":"36097 Waywood Plaza","latitude":39.592,"longitude":-105.1328,"us_state":"Colorado","name":"Gladding,Cammie"},{"address":"90568 Arizona Court","latitude":30.2642,"longitude":-93.3265,"us_state":"Louisiana","name":"Paskell,Hamlin"},{"address":"4 Nancy Hill","latitude":40.7628,"longitude":-73.9785,"us_state":"New York","name":"Farquharson,Gonzales"},{"address":"918 Fisk Road","latitude":35.0981,"longitude":-89.9825,"us_state":"Tennessee","name":"Cordon,Belia"},{"address":"600 Northfield Lane","latitude":40.9177,"longitude":-73.895,"us_state":"New York","name":"Tortis,Mickie"},{"address":"703 Chive Court","latitude":30.6589,"longitude":-88.178,"us_state":"Alabama","name":"Dudson,Fernanda"},{"address":"6 Katie Point","latitude":42.7325,"longitude":-84.5587,"us_state":"Michigan","name":"Bound,Tilly"},{"address":"954 Alpine Plaza","latitude":30.43,"longitude":-97.8326,"us_state":"Texas","name":"Reckus,Corrianne"},{"address":"360 Holy Cross Terrace","latitude":38.8981,"longitude":-77.0401,"us_state":"District of Columbia","name":"Edeson,Winonah"},{"address":"33320 Buhler Plaza","latitude":30.43,"longitude":-97.8326,"us_state":"Texas","name":"Gaythwaite,Virgil"},{"address":"6910 Valley Edge Hill","latitude":35.0512,"longitude":-106.7269,"us_state":"New Mexico","name":"Trevan,Vinny"},{"address":"4 Hintze Crossing","latitude":32.3386,"longitude":-90.1708,"us_state":"Mississippi","name":"Lamshead,Parsifal"},{"address":"0336 Iowa Trail","latitude":33.7866,"longitude":-118.2987,"us_state":"California","name":"Shinn,Stephenie"},{"address":"9994 Hoard Alley","latitude":30.033,"longitude":-89.8826,"us_state":"Louisiana","name":"Board,Kelwin"},{"address":"54 Del Sol Circle","latitude":26.1457,"longitude":-80.4483,"us_state":"Florida","name":"Peters,Forbes"},{"address":"02812 Ridgeview Center","latitude":39.9106,"longitude":-83.7856,"us_state":"Ohio","name":"Novello,Ephrayim"},{"address":"99192 Chinook Way","latitude":40.2805,"longitude":-74.712,"us_state":"New Jersey","name":"Cadamy,Nobe"},{"address":"11320 Roth Place","latitude":44.0225,"longitude":-92.4668,"us_state":"Minnesota","name":"Cogan,Ferdinande"},{"address":"612 Charing Cross Drive","latitude":39.7495,"longitude":-89.606,"us_state":"Illinois","name":"Twinterman,Cletus"},{"address":"5 Mandrake Street","latitude":38.8933,"longitude":-77.0146,"us_state":"District of Columbia","name":"Middler,Devlin"},{"address":"8226 Sunnyside Street","latitude":27.9139,"longitude":-82.7157,"us_state":"Florida","name":"Bankhurst,Karisa"},{"address":"562 Texas Plaza","latitude":37.7786,"longitude":-122.4892,"us_state":"California","name":"Capitano,Forrester"},{"address":"8055 3rd Park","latitude":37.1376,"longitude":-84.1156,"us_state":"Kentucky","name":"Butterwick,Sybyl"},{"address":"3951 Caliangt Plaza","latitude":40.7808,"longitude":-73.9772,"us_state":"New York","name":"Byrth,Karon"},{"address":"40557 Sloan Street","latitude":41.8804,"longitude":-87.7223,"us_state":"Illinois","name":"O'Dowd,Thorndike"},{"address":"62390 Waxwing Court","latitude":33.9677,"longitude":-84.2438,"us_state":"Georgia","name":"Thredder,Mannie"},{"address":"1643 Grasskamp Street","latitude":38.2968,"longitude":-81.5547,"us_state":"West Virginia","name":"Fogg,Al"},{"address":"5 Maryland Alley","latitude":34.01,"longitude":-118.4717,"us_state":"California","name":"Jeggo,Ronna"},{"address":"9893 Kings Hill","latitude":40.8956,"longitude":-81.433,"us_state":"Ohio","name":"Tomsa,Georgiana"},{"address":"3263 Coolidge Center","latitude":32.4589,"longitude":-93.7143,"us_state":"Louisiana","name":"Coch,Tan"},{"address":"4 Del Mar Center","latitude":40.4598,"longitude":-79.8224,"us_state":"Pennsylvania","name":"Maude,Emanuele"},{"address":"261 High Crossing Crossing","latitude":30.4455,"longitude":-97.6595,"us_state":"Texas","name":"Gahan,Jacklin"},{"address":"90 Florence Parkway","latitude":33.9228,"longitude":-117.4867,"us_state":"California","name":"Grey,Shannan"},{"address":"59 Maple Wood Alley","latitude":40.3522,"longitude":-78.9383,"us_state":"Pennsylvania","name":"Twitchings,Putnem"},{"address":"253 Macpherson Way","latitude":43.0528,"longitude":-87.9353,"us_state":"Wisconsin","name":"Bercevelo,Karyl"},{"address":"6 Walton Parkway","latitude":40.2023,"longitude":-85.4082,"us_state":"Indiana","name":"Rutt,Riane"},{"address":"3902 Manitowish Crossing","latitude":41.8119,"longitude":-87.6873,"us_state":"Illinois","name":"Gringley,Lazarus"},{"address":"53 Mifflin Place","latitude":33.1428,"longitude":-97.0727,"us_state":"Texas","name":"Pitkeathley,Regen"},{"address":"50814 Ilene Terrace","latitude":38.2149,"longitude":-85.6245,"us_state":"Kentucky","name":"Whorf,Arleen"},{"address":"230 Portage Circle","latitude":28.5469,"longitude":-81.2571,"us_state":"Florida","name":"McAuslan,Erl"},{"address":"05850 Surrey Point","latitude":38.5816,"longitude":-121.4933,"us_state":"California","name":"Robbins,Rosalind"},{"address":"5 Hallows Street","latitude":38.945,"longitude":-77.0364,"us_state":"District of Columbia","name":"Shrubb,Noelani"},{"address":"2580 Clove Avenue","latitude":47.9335,"longitude":-97.3944,"us_state":"North Dakota","name":"Huban,Eugenia"},{"address":"299 Mcbride Junction","latitude":44.9806,"longitude":-93.1771,"us_state":"Minnesota","name":"Ruddin,Vannie"},{"address":"5 Marcy Court","latitude":42.1087,"longitude":-79.9535,"us_state":"Pennsylvania","name":"Adamthwaite,Thorpe"},{"address":"635 Eagan Plaza","latitude":37.9577,"longitude":-121.2897,"us_state":"California","name":"Sulman,Harwell"},{"address":"32 Superior Terrace","latitude":38.2968,"longitude":-81.5547,"us_state":"West Virginia","name":"Swaffer,Brooks"},{"address":"87 Emmet Park","latitude":33.7866,"longitude":-118.2987,"us_state":"California","name":"Smyth,Shem"},{"address":"051 Hudson Point","latitude":40.8702,"longitude":-73.8495,"us_state":"New York","name":"Bottom,Nathaniel"},{"address":"00536 Leroy Junction","latitude":31.6948,"longitude":-106.3,"us_state":"Texas","name":"Faragan,Sloan"},{"address":"6794 Harper Terrace","latitude":47.6849,"longitude":-122.2968,"us_state":"Washington","name":"Suller,Elsbeth"},{"address":"797 Hudson Drive","latitude":34.8019,"longitude":-92.1894,"us_state":"Arkansas","name":"Lutty,Enrique"},{"address":"750 Tomscot Pass","latitude":33.5446,"longitude":-86.9292,"us_state":"Alabama","name":"Baggalley,Rorie"},{"address":"71 Macpherson Pass","latitude":33.0169,"longitude":-116.846,"us_state":"California","name":"Drinkel,Kessiah"},{"address":"5 Quincy Court","latitude":32.432,"longitude":-99.7724,"us_state":"Texas","name":"Malinson,Blanca"},{"address":"4 Main Hill","latitude":40.8111,"longitude":-73.9642,"us_state":"New York","name":"Lemmers,Bruno"},{"address":"07 Superior Center","latitude":33.9937,"longitude":-81.0199,"us_state":"South Carolina","name":"Jeromson,Lyman"},{"address":"93 Oakridge Street","latitude":30.6589,"longitude":-88.178,"us_state":"Alabama","name":"Arnefield,Brandi"},{"address":"6 Fallview Place","latitude":42.7684,"longitude":-78.8871,"us_state":"New York","name":"Lymbourne,Kailey"},{"address":"4713 Heath Trail","latitude":33.8444,"longitude":-84.474,"us_state":"Georgia","name":"Gaskill,Marlowe"},{"address":"0 Anderson Center","latitude":41.3914,"longitude":-75.6657,"us_state":"Pennsylvania","name":"Jovicevic,Adelheid"},{"address":"574 Fremont Road","latitude":33.9321,"longitude":-83.3525,"us_state":"Georgia","name":"Prazer,Martelle"},{"address":"58 Oneill Lane","latitude":38.3774,"longitude":-121.4444,"us_state":"California","name":"Schutter,Trix"},{"address":"11 Shelley Crossing","latitude":42.7325,"longitude":-84.5587,"us_state":"Michigan","name":"O'Flaverty,Ahmad"},{"address":"80493 Burrows Center","latitude":41.6913,"longitude":-70.9355,"us_state":"Massachusetts","name":"Melanaphy,Duky"},{"address":"01 Vidon Drive","latitude":41.0938,"longitude":-85.0707,"us_state":"Indiana","name":"Skitt,Lawry"},{"address":"18 Killdeer Trail","latitude":38.4826,"longitude":-121.4006,"us_state":"California","name":"Buckbee,Kailey"},{"address":"3491 Montana Drive","latitude":42.7684,"longitude":-78.8871,"us_state":"New York","name":"Ivan,Aidan"},{"address":"32 4th Lane","latitude":35.4369,"longitude":-119.0679,"us_state":"California","name":"Comber,Sampson"},{"address":"43 La Follette Place","latitude":43.4599,"longitude":-116.244,"us_state":"Idaho","name":"MacCumeskey,Harriette"},{"address":"887 Atwood Parkway","latitude":34.7269,"longitude":-92.344,"us_state":"Arkansas","name":"Dillway,Denny"},{"address":"0824 Larry Crossing","latitude":38.8933,"longitude":-77.0146,"us_state":"District of Columbia","name":"Tolcher,Daveta"},{"address":"4799 Manufacturers Terrace","latitude":36.1114,"longitude":-86.869,"us_state":"Tennessee","name":"Kohtler,Sheba"},{"address":"4606 Miller Court","latitude":29.6813,"longitude":-82.3539,"us_state":"Florida","name":"Bullier,Rockey"},{"address":"30 Commercial Park","latitude":36.7957,"longitude":-76.0126,"us_state":"Virginia","name":"Hendrichs,Lorrin"},{"address":"4264 Northport Plaza","latitude":35.26,"longitude":-80.8042,"us_state":"North Carolina","name":"Giovanizio,Saul"},{"address":"841 Scoville Junction","latitude":35.8596,"longitude":-86.421,"us_state":"Tennessee","name":"Battleson,Lyn"},{"address":"7162 High Crossing Place","latitude":41.5968,"longitude":-86.293,"us_state":"Indiana","name":"Melson,Atlante"},{"address":"36974 Pankratz Trail","latitude":47.2325,"longitude":-122.3594,"us_state":"Washington","name":"Rablan,Ogdan"},{"address":"80 Farragut Terrace","latitude":45.5806,"longitude":-122.3748,"us_state":"Oregon","name":"Nesbeth,Micheline"},{"address":"7401 Cordelia Avenue","latitude":26.1443,"longitude":-80.2069,"us_state":"Florida","name":"Eles,Layne"},{"address":"7855 Kenwood Plaza","latitude":30.352,"longitude":-97.7151,"us_state":"Texas","name":"Christofor,Celesta"},{"address":"491 Elka Junction","latitude":40.8085,"longitude":-73.9198,"us_state":"New York","name":"Cripin,Flor"},{"address":"6458 Hintze Center","latitude":33.8444,"longitude":-84.474,"us_state":"Georgia","name":"Strickland,Joyous"},{"address":"8491 Sage Road","latitude":61.1872,"longitude":-149.8804,"us_state":"Alaska","name":"Jopling,Steffi"},{"address":"6395 Sutteridge Plaza","latitude":39.969,"longitude":-83.0114,"us_state":"Ohio","name":"Lomaz,Julienne"},{"address":"3404 Forster Trail","latitude":32.9189,"longitude":-96.7751,"us_state":"Texas","name":"Elby,Darn"},{"address":"40 Moulton Park","latitude":42.1109,"longitude":-80.1534,"us_state":"Pennsylvania","name":"Yukhnini,Swen"},{"address":"09733 Pleasure Plaza","latitude":35.22,"longitude":-80.7881,"us_state":"North Carolina","name":"Bravery,Brockie"},{"address":"1 Dottie Trail","latitude":37.7194,"longitude":-97.2936,"us_state":"Kansas","name":"Banbrigge,Guthry"},{"address":"456 Arizona Court","latitude":33.9367,"longitude":-83.9573,"us_state":"Georgia","name":"Davisson,Theodore"},{"address":"883 Atwood Park","latitude":41.028,"longitude":-81.4632,"us_state":"Ohio","name":"Nizet,Lorianne"},{"address":"47265 Shoshone Street","latitude":37.9971,"longitude":-87.575,"us_state":"Indiana","name":"Langstaff,Hobard"},{"address":"02 Spaight Road","latitude":35.0981,"longitude":-89.9825,"us_state":"Tennessee","name":"Klageman,Cly"},{"address":"5 Cambridge Hill","latitude":25.7559,"longitude":-80.2013,"us_state":"Florida","name":"Belverstone,Sonnnie"},{"address":"85 Drewry Hill","latitude":28.072,"longitude":-81.9609,"us_state":"Florida","name":"Challiss,Zachary"},{"address":"2064 Bonner Circle","latitude":39.5645,"longitude":-75.597,"us_state":"Delaware","name":"Norris,Nicolis"},{"address":"61 Golf Course Crossing","latitude":38.0702,"longitude":-84.591,"us_state":"Kentucky","name":"Domerc,Imojean"},{"address":"129 Dorton Crossing","latitude":32.2138,"longitude":-110.824,"us_state":"Arizona","name":"O'Hartnedy,Cesya"},{"address":"0520 Waywood Avenue","latitude":41.1287,"longitude":-81.54,"us_state":"Ohio","name":"Boss,Benton"},{"address":"753 Schiller Circle","latitude":25.5584,"longitude":-80.4582,"us_state":"Florida","name":"Gribbins,Lothario"},{"address":"06332 Stang Drive","latitude":45.6231,"longitude":-122.5767,"us_state":"Washington","name":"Drable,Koral"},{"address":"58 Sherman Hill","latitude":30.0956,"longitude":-81.6217,"us_state":"Florida","name":"Spatari,Flor"},{"address":"19499 Saint Paul Point","latitude":61.1089,"longitude":-149.4403,"us_state":"Alaska","name":"Skoof,Gerard"},{"address":"95449 Southridge Way","latitude":31.6948,"longitude":-106.3,"us_state":"Texas","name":"Crosby,Emelda"},{"address":"77966 Del Sol Avenue","latitude":38.9621,"longitude":-94.5959,"us_state":"Missouri","name":"Sloam,Terrill"},{"address":"581 Dovetail Crossing","latitude":35.599,"longitude":-97.6251,"us_state":"Oklahoma","name":"Mynett,Archibald"},{"address":"96467 Nancy Circle","latitude":30.2023,"longitude":-92.0188,"us_state":"Louisiana","name":"Nudd,Adi"},{"address":"0670 Tennyson Trail","latitude":40.6324,"longitude":-74.1172,"us_state":"New York","name":"Revan,Guglielma"},{"address":"28597 Carey Point","latitude":27.9843,"longitude":-82.7813,"us_state":"Florida","name":"Finnis,Stefa"},{"address":"52 Schlimgen Avenue","latitude":33.0169,"longitude":-116.846,"us_state":"California","name":"Threlkeld,Flora"},{"address":"42141 Bartillon Drive","latitude":38.354,"longitude":-81.6394,"us_state":"West Virginia","name":"McNeachtain,Jeffry"},{"address":"796 Hoffman Lane","latitude":36.0807,"longitude":-80.0244,"us_state":"North Carolina","name":"Clutton,Ellwood"},{"address":"377 Old Gate Way","latitude":31.6948,"longitude":-106.3,"us_state":"Texas","name":"Wasielewicz,Amalia"},{"address":"1153 1st Crossing","latitude":42.3319,"longitude":-71.254,"us_state":"Massachusetts","name":"Lorincz,Olivie"},{"address":"565 Raven Park","latitude":40.7548,"longitude":-73.6018,"us_state":"New York","name":"Caro,Jami"},{"address":"56983 Oxford Parkway","latitude":34.1872,"longitude":-118.3865,"us_state":"California","name":"Mattioni,Lammond"},{"address":"066 Doe Crossing Place","latitude":33.8444,"longitude":-84.474,"us_state":"Georgia","name":"Snelgar,Yance"},{"address":"426 Maywood Point","latitude":39.2829,"longitude":-94.409,"us_state":"Missouri","name":"Stennings,Jaquith"},{"address":"6131 Washington Street","latitude":27.9654,"longitude":-82.8001,"us_state":"Florida","name":"Nisen,Lewie"},{"address":"93020 Scofield Pass","latitude":41.6538,"longitude":-83.6589,"us_state":"Ohio","name":"Tidmarsh,Sidoney"},{"address":"8729 Pankratz Way","latitude":43.0696,"longitude":-89.4239,"us_state":"Wisconsin","name":"Have,Lezley"},{"address":"8731 Service Center","latitude":29.9781,"longitude":-95.5803,"us_state":"Texas","name":"Adamiak,Sharleen"},{"address":"7272 Nobel Pass","latitude":39.778,"longitude":-89.6466,"us_state":"Illinois","name":"McCurtin,Hilary"},{"address":"3 Armistice Lane","latitude":32.7673,"longitude":-96.7776,"us_state":"Texas","name":"Simonitto,Keven"},{"address":"3 Spaight Road","latitude":37.6374,"longitude":-122.067,"us_state":"California","name":"Tulk,Basile"},{"address":"7887 Dexter Pass","latitude":27.0459,"longitude":-82.2491,"us_state":"Florida","name":"Caren,Blondy"},{"address":"77025 Clarendon Crossing","latitude":34.8337,"longitude":-92.3289,"us_state":"Arkansas","name":"Nolleth,Sydelle"},{"address":"76726 Homewood Trail","latitude":38.8933,"longitude":-77.0146,"us_state":"District of Columbia","name":"Muggach,Jody"},{"address":"0525 Trailsway Way","latitude":25.5593,"longitude":-80.3483,"us_state":"Florida","name":"Borrie,Arlene"},{"address":"167 Claremont Point","latitude":41.6868,"longitude":-83.4394,"us_state":"Ohio","name":"Heathwood,Sheela"},{"address":"4 Prentice Plaza","latitude":42.37,"longitude":-71.1773,"us_state":"Massachusetts","name":"Richings,Davy"},{"address":"6 Gulseth Road","latitude":30.3264,"longitude":-97.7713,"us_state":"Texas","name":"Renison,Loree"},{"address":"482 Old Gate Parkway","latitude":33.8932,"longitude":-84.2539,"us_state":"Georgia","name":"Thring,Glory"},{"address":"0 Waywood Avenue","latitude":41.8119,"longitude":-87.6873,"us_state":"Illinois","name":"Truter,Lacy"},{"address":"143 Canary Terrace","latitude":35.26,"longitude":-80.8042,"us_state":"North Carolina","name":"Lorden,Kinny"},{"address":"10 Milwaukee Place","latitude":38.0283,"longitude":-84.4715,"us_state":"Kentucky","name":"Winterscale,Stanwood"},{"address":"0111 Forster Point","latitude":34.169,"longitude":-118.3442,"us_state":"California","name":"Dyet,Bettye"},{"address":"9706 Little Fleur Junction","latitude":38.8247,"longitude":-104.562,"us_state":"Colorado","name":"Shyre,Kin"},{"address":"2975 Crowley Trail","latitude":38.2149,"longitude":-85.6245,"us_state":"Kentucky","name":"Mattioli,Charlot"},{"address":"6322 Michigan Crossing","latitude":45.0632,"longitude":-93.3811,"us_state":"Minnesota","name":"Cartmell,Nicolette"},{"address":"055 Ludington Drive","latitude":43.0696,"longitude":-89.4239,"us_state":"Wisconsin","name":"Yokelman,Clarine"},{"address":"44489 Harbort Place","latitude":38.8933,"longitude":-77.0146,"us_state":"District of Columbia","name":"Valentetti,Mano"},{"address":"968 Emmet Center","latitude":30.3264,"longitude":-97.7713,"us_state":"Texas","name":"Tappington,Hatti"},{"address":"90492 Gerald Street","latitude":33.0169,"longitude":-116.846,"us_state":"California","name":"Dudin,Mitchael"},{"address":"4096 Hazelcrest Parkway","latitude":38.8874,"longitude":-77.0047,"us_state":"District of Columbia","name":"Greggs,Leland"},{"address":"187 Kingsford Pass","latitude":38.4134,"longitude":-82.2774,"us_state":"West Virginia","name":"Rasmus,Robb"},{"address":"403 Derek Place","latitude":35.3471,"longitude":-120.4553,"us_state":"California","name":"Middlemass,Belva"},{"address":"896 Londonderry Crossing","latitude":26.5228,"longitude":-81.7065,"us_state":"Florida","name":"Stennings,Northrup"},{"address":"671 Bellgrove Way","latitude":38.7202,"longitude":-77.4391,"us_state":"Virginia","name":"Roggieri,Creigh"},{"address":"2 Dovetail Place","latitude":25.5584,"longitude":-80.4582,"us_state":"Florida","name":"Greenstock,Revkah"},{"address":"912 Bonner Plaza","latitude":31.6948,"longitude":-106.3,"us_state":"Texas","name":"Amberson,Lenard"},{"address":"56 Dayton Trail","latitude":39.0883,"longitude":-77.1568,"us_state":"Maryland","name":"Butterly,Ulrika"},{"address":"928 Carpenter Circle","latitude":33.7866,"longitude":-118.2987,"us_state":"California","name":"Colwill,Krystle"},{"address":"17412 Golden Leaf Center","latitude":33.8193,"longitude":-118.2325,"us_state":"California","name":"Quiddington,Cazzie"},{"address":"120 Kennedy Crossing","latitude":40.6747,"longitude":-74.2239,"us_state":"New Jersey","name":"Laurent,Freddy"},{"address":"647 Lyons Street","latitude":39.5645,"longitude":-75.597,"us_state":"Delaware","name":"Kinavan,Maurizio"},{"address":"41 Tennyson Place","latitude":39.7509,"longitude":-86.1924,"us_state":"Indiana","name":"Crockatt,Georgine"},{"address":"0078 Artisan Crossing","latitude":26.1497,"longitude":-80.1229,"us_state":"Florida","name":"MacKellar,Lorinda"},{"address":"19397 Clemons Terrace","latitude":33.3887,"longitude":-111.8428,"us_state":"Arizona","name":"Benedito,Miller"},{"address":"3353 Nevada Road","latitude":33.8444,"longitude":-84.474,"us_state":"Georgia","name":"Corbould,Holli"},{"address":"422 Anderson Place","latitude":43.174,"longitude":-77.5637,"us_state":"New York","name":"Kennea,Corny"},{"address":"8 Heath Park","latitude":29.9781,"longitude":-95.5803,"us_state":"Texas","name":"Brownjohn,Georgina"},{"address":"8197 Hoepker Place","latitude":33.9631,"longitude":-118.3941,"us_state":"California","name":"Saill,Tova"},{"address":"7 Ryan Center","latitude":31.6948,"longitude":-106.3,"us_state":"Texas","name":"McDugal,Valina"},{"address":"3 Atwood Drive","latitude":39.1678,"longitude":-119.7764,"us_state":"Nevada","name":"Burner,Leonard"},{"address":"81 Loeprich Center","latitude":32.4908,"longitude":-92.1594,"us_state":"Louisiana","name":"Durdle,Kile"},{"address":"2 Steensland Lane","latitude":31.7705,"longitude":-106.5048,"us_state":"Texas","name":"Airy,Orrin"},{"address":"7 Rutledge Terrace","latitude":25.8507,"longitude":-80.2366,"us_state":"Florida","name":"Jaukovic,Caro"},{"address":"947 Surrey Parkway","latitude":25.7341,"longitude":-80.4068,"us_state":"Florida","name":"Gymlett,Hastings"},{"address":"562 Hudson Circle","latitude":45.5806,"longitude":-122.3748,"us_state":"Oregon","name":"Wernher,Audrey"},{"address":"58839 Lerdahl Center","latitude":36.1866,"longitude":-86.7852,"us_state":"Tennessee","name":"Trinder,Elwyn"},{"address":"37 5th Drive","latitude":34.2628,"longitude":-119.8486,"us_state":"California","name":"Tomkin,Benetta"},{"address":"53 Hudson Terrace","latitude":30.033,"longitude":-89.8826,"us_state":"Louisiana","name":"Curd,Carmelita"},{"address":"8020 Kennedy Avenue","latitude":38.9381,"longitude":-77.086,"us_state":"District of Columbia","name":"Heavens,Angel"},{"address":"7997 Norway Maple Plaza","latitude":26.1097,"longitude":-80.3215,"us_state":"Florida","name":"Van den Bosch,Abramo"},{"address":"31217 Fair Oaks Court","latitude":32.6076,"longitude":-93.7526,"us_state":"Louisiana","name":"Arens,Alexina"},{"address":"01 Fuller Parkway","latitude":36.0807,"longitude":-80.0244,"us_state":"North Carolina","name":"Mauser,Flemming"},{"address":"09720 Moose Road","latitude":29.8941,"longitude":-95.6481,"us_state":"Texas","name":"Filipic,Shannon"},{"address":"53433 Loftsgordon Park","latitude":39.0883,"longitude":-77.1568,"us_state":"Maryland","name":"Rudloff,Crissy"},{"address":"02963 Steensland Lane","latitude":45.0159,"longitude":-93.4719,"us_state":"Minnesota","name":"Sporrij,Christy"},{"address":"376 Basil Court","latitude":38.9776,"longitude":-77.386,"us_state":"Virginia","name":"Plomer,Emlen"},{"address":"42151 Chive Road","latitude":35.0443,"longitude":-106.6729,"us_state":"New Mexico","name":"Bing,Red"},{"address":"4432 Ryan Street","latitude":41.3087,"longitude":-72.9271,"us_state":"Connecticut","name":"Mattiassi,Obie"},{"address":"699 Springs Street","latitude":46.9346,"longitude":-97.2297,"us_state":"North Dakota","name":"Sammonds,Udale"},{"address":"1177 Warrior Parkway","latitude":47.7377,"longitude":-122.3431,"us_state":"Washington","name":"Le Marchand,Billye"},{"address":"3 Kedzie Circle","latitude":36.2204,"longitude":-115.1458,"us_state":"Nevada","name":"Kreutzer,Brew"},{"address":"613 Prairie Rose Lane","latitude":39.8422,"longitude":-105.1097,"us_state":"Colorado","name":"Bartolommeo,Shel"},{"address":"13681 Prairieview Pass","latitude":42.7684,"longitude":-78.8871,"us_state":"New York","name":"Scrogges,Moria"},{"address":"3 Old Gate Street","latitude":33.7866,"longitude":-118.2987,"us_state":"California","name":"Durtnal,Elwyn"},{"address":"2250 Hagan Hill","latitude":47.1441,"longitude":-122.4434,"us_state":"Washington","name":"Gibbard,Leda"},{"address":"9 Toban Alley","latitude":39.0429,"longitude":-95.7697,"us_state":"Kansas","name":"Willshaw,Faith"},{"address":"40753 Dunning Street","latitude":25.9441,"longitude":-80.2144,"us_state":"Florida","name":"Sousa,Artemis"},{"address":"16 Daystar Parkway","latitude":40.6924,"longitude":-73.9666,"us_state":"New York","name":"Pilipyak,Ethelda"},{"address":"5 Sycamore Alley","latitude":43.286,"longitude":-77.6843,"us_state":"New York","name":"Scollick,Taber"},{"address":"0730 Melrose Circle","latitude":33.811,"longitude":-117.8493,"us_state":"California","name":"Mc Gee,Leopold"},{"address":"0 Heffernan Point","latitude":33.5446,"longitude":-86.9292,"us_state":"Alabama","name":"Wisniewski,Starr"},{"address":"67538 Lakewood Terrace","latitude":40.4614,"longitude":-88.953,"us_state":"Illinois","name":"Rummer,Rycca"},{"address":"8778 Meadow Ridge Lane","latitude":27.2427,"longitude":-82.4751,"us_state":"Florida","name":"Nund,Ripley"},{"address":"447 Monterey Terrace","latitude":28.3067,"longitude":-80.6862,"us_state":"Florida","name":"Fines,Jerry"},{"address":"0 Kim Pass","latitude":27.0459,"longitude":-82.2491,"us_state":"Florida","name":"Dillon,Angel"},{"address":"3 Columbus Park","latitude":42.2399,"longitude":-83.1508,"us_state":"Michigan","name":"Radbourn,Matty"},{"address":"802 Sutteridge Junction","latitude":38.1286,"longitude":-104.5523,"us_state":"Colorado","name":"Hick,Howard"},{"address":"597 Swallow Plaza","latitude":36.2158,"longitude":-115.0671,"us_state":"Nevada","name":"Hanrott,Edgardo"},{"address":"215 Sachtjen Circle","latitude":39.778,"longitude":-89.6466,"us_state":"Illinois","name":"Bessey,Celinda"},{"address":"4106 5th Drive","latitude":41.0977,"longitude":-85.1189,"us_state":"Indiana","name":"Flobert,Sergio"},{"address":"28 Rigney Park","latitude":47.4497,"longitude":-122.3076,"us_state":"Washington","name":"Crooke,Massimo"},{"address":"02861 John Wall Circle","latitude":40.0028,"longitude":-83.0164,"us_state":"Ohio","name":"Milbourne,Georgina"},{"address":"5 Farmco Plaza","latitude":31.4647,"longitude":-100.39,"us_state":"Texas","name":"Wyrill,Jolene"},{"address":"6 Commercial Crossing","latitude":37.6808,"longitude":-97.1558,"us_state":"Kansas","name":"Leil,Orton"},{"address":"594 Heffernan Pass","latitude":33.2765,"longitude":-112.1872,"us_state":"Arizona","name":"Blueman,Eddy"},{"address":"578 Quincy Court","latitude":36.0914,"longitude":-115.0885,"us_state":"Nevada","name":"Linck,Corrie"},{"address":"3888 Ludington Trail","latitude":38.6383,"longitude":-90.4271,"us_state":"Missouri","name":"Kraft,Cassius"},{"address":"833 Lukken Avenue","latitude":47.7377,"longitude":-122.3431,"us_state":"Washington","name":"O' Driscoll,Haley"},{"address":"6829 American Ash Avenue","latitude":35.4794,"longitude":-97.5017,"us_state":"Oklahoma","name":"Rackley,Ardra"},{"address":"7 Lotheville Hill","latitude":39.9473,"longitude":-75.15,"us_state":"Pennsylvania","name":"Shivell,Sigismundo"},{"address":"504 Iowa Circle","latitude":41.1465,"longitude":-85.1232,"us_state":"Indiana","name":"Clemens,Faustina"},{"address":"3243 Sutherland Drive","latitude":39.7155,"longitude":-84.1637,"us_state":"Ohio","name":"McCalum,Stanfield"},{"address":"8633 Logan Point","latitude":40.7911,"longitude":-81.4169,"us_state":"Ohio","name":"Savatier,Matty"},{"address":"62771 Lerdahl Junction","latitude":38.896,"longitude":-77.0177,"us_state":"District of Columbia","name":"Peat,Kamilah"},{"address":"337 Evergreen Avenue","latitude":29.7543,"longitude":-95.3609,"us_state":"Texas","name":"Cherrett,Zeb"},{"address":"04718 Pankratz Junction","latitude":43.4732,"longitude":-83.9514,"us_state":"Michigan","name":"Seabourne,Harlan"},{"address":"73 Heath Point","latitude":38.354,"longitude":-81.6394,"us_state":"West Virginia","name":"Abadam,Elli"},{"address":"3 Redwing Junction","latitude":30.2081,"longitude":-92.0951,"us_state":"Louisiana","name":"Basilone,Cam"},{"address":"1 Summit Hill","latitude":40.7324,"longitude":-74.0431,"us_state":"New Jersey","name":"McSperrin,Zerk"},{"address":"283 Nova Circle","latitude":32.7673,"longitude":-96.7776,"us_state":"Texas","name":"Dyshart,Felisha"},{"address":"0 Grim Point","latitude":33.7866,"longitude":-118.2987,"us_state":"California","name":"Sames,Nance"},{"address":"403 Cottonwood Point","latitude":33.5446,"longitude":-86.9292,"us_state":"Alabama","name":"Beagles,Raymund"},{"address":"005 Farragut Circle","latitude":32.9522,"longitude":-96.6654,"us_state":"Texas","name":"Welburn,Torrie"},{"address":"4758 Ilene Circle","latitude":30.3264,"longitude":-97.7713,"us_state":"Texas","name":"Lindsley,Meryl"},{"address":"54504 Fairfield Junction","latitude":38.8318,"longitude":-77.2888,"us_state":"Virginia","name":"Tarney,Virgilio"},{"address":"4 Blaine Park","latitude":29.834,"longitude":-95.4342,"us_state":"Texas","name":"Whalebelly,Annaliese"},{"address":"27608 Helena Parkway","latitude":39.2847,"longitude":-76.6205,"us_state":"Maryland","name":"Haibel,Miquela"},{"address":"811 Upham Point","latitude":38.8247,"longitude":-104.562,"us_state":"Colorado","name":"Graysmark,Kent"},{"address":"93 Heffernan Street","latitude":35.2017,"longitude":-89.9715,"us_state":"Tennessee","name":"Messam,Stanley"},{"address":"01 Mitchell Drive","latitude":31.6948,"longitude":-106.3,"us_state":"Texas","name":"McLennan,Kimberley"},{"address":"34 Brickson Park Drive","latitude":31.6948,"longitude":-106.3,"us_state":"Texas","name":"De Blasio,Serge"},{"address":"58 Esch Terrace","latitude":38.2968,"longitude":-81.5547,"us_state":"West Virginia","name":"Messer,Chip"},{"address":"8 Manley Alley","latitude":38.897,"longitude":-77.0251,"us_state":"District of Columbia","name":"Pesterfield,Nicolis"},{"address":"7843 Coleman Junction","latitude":33.5452,"longitude":-86.6655,"us_state":"Alabama","name":"Kennealy,Glen"},{"address":"96 Lukken Way","latitude":27.4841,"longitude":-82.5834,"us_state":"Florida","name":"Meharry,Mervin"},{"address":"8 Valley Edge Hill","latitude":25.9894,"longitude":-80.2153,"us_state":"Florida","name":"Dowyer,Gary"},{"address":"2 Ilene Park","latitude":37.7848,"longitude":-122.7278,"us_state":"California","name":"Lapworth,Karmen"},{"address":"44932 Eliot Place","latitude":31.6948,"longitude":-106.3,"us_state":"Texas","name":"Bevir,Kimbell"},{"address":"987 Esch Junction","latitude":40.7808,"longitude":-73.9772,"us_state":"New York","name":"Rossbrook,Dorella"},{"address":"07 Cody Crossing","latitude":28.0081,"longitude":-82.5805,"us_state":"Florida","name":"Linnitt,Eliot"},{"address":"63 Steensland Crossing","latitude":39.0583,"longitude":-95.7095,"us_state":"Kansas","name":"Giacomasso,Ferdie"},{"address":"661 Graedel Alley","latitude":41.3914,"longitude":-75.6657,"us_state":"Pennsylvania","name":"Blakeston,Eleen"},{"address":"330 Banding Pass","latitude":36.0512,"longitude":-78.8577,"us_state":"North Carolina","name":"Coils,Dalenna"},{"address":"906 Springs Street","latitude":33.7406,"longitude":-84.5545,"us_state":"Georgia","name":"O'Carney,Zondra"},{"address":"9082 Garrison Way","latitude":39.439,"longitude":-76.5921,"us_state":"Maryland","name":"Mateus,Brittani"},{"address":"48 Acker Place","latitude":33.6062,"longitude":-117.8931,"us_state":"California","name":"Stobbart,Tiphanie"},{"address":"76 Pennsylvania Terrace","latitude":30.0505,"longitude":-95.4695,"us_state":"Texas","name":"Goudman,Harriett"},{"address":"8 Lerdahl Parkway","latitude":38.189,"longitude":-85.6768,"us_state":"Kentucky","name":"Spark,Fannie"},{"address":"89 Judy Way","latitude":37.1136,"longitude":-93.2896,"us_state":"Missouri","name":"McLucky,Frederico"},{"address":"39233 Kennedy Lane","latitude":33.571,"longitude":-101.8507,"us_state":"Texas","name":"Huncoot,Benjamin"},{"address":"6974 Marquette Crossing","latitude":36.7464,"longitude":-119.6397,"us_state":"California","name":"Lown,Oswell"},{"address":"024 Boyd Crossing","latitude":32.373,"longitude":-86.3081,"us_state":"Alabama","name":"Aven,Marquita"},{"address":"1 Heath Junction","latitude":32.6796,"longitude":-97.3336,"us_state":"Texas","name":"Claige,Cristobal"},{"address":"205 Weeping Birch Court","latitude":41.2044,"longitude":-75.9113,"us_state":"Pennsylvania","name":"Boteman,Jerry"},{"address":"2 Novick Junction","latitude":32.7635,"longitude":-117.2028,"us_state":"California","name":"Hawick,Tonia"},{"address":"704 Delladonna Trail","latitude":39.7505,"longitude":-84.2686,"us_state":"Ohio","name":"Dykes,Ruddie"},{"address":"879 Oxford Avenue","latitude":32.4968,"longitude":-92.0756,"us_state":"Louisiana","name":"Lougheid,Aarika"},{"address":"3 Prentice Point","latitude":35.0443,"longitude":-106.6729,"us_state":"New Mexico","name":"Rutherford,Lauretta"},{"address":"9306 Independence Way","latitude":37.7641,"longitude":-122.1633,"us_state":"California","name":"Baillie,Suzi"},{"address":"5 Northport Road","latitude":27.8402,"longitude":-82.7125,"us_state":"Florida","name":"Gerrens,Diarmid"},{"address":"9 Declaration Trail","latitude":39.969,"longitude":-83.0114,"us_state":"Ohio","name":"Stubbeley,Delano"},{"address":"13101 Brown Alley","latitude":33.7074,"longitude":-117.8403,"us_state":"California","name":"Hulke,Perry"},{"address":"3 Norway Maple Drive","latitude":29.7629,"longitude":-95.3629,"us_state":"Texas","name":"Fabri,Jewel"},{"address":"69 Dunning Plaza","latitude":38.3774,"longitude":-121.4444,"us_state":"California","name":"Eskrigge,Jeth"},{"address":"5 Del Sol Junction","latitude":26.1654,"longitude":-80.2959,"us_state":"Florida","name":"Showalter,Meg"},{"address":"812 Fuller Road","latitude":31.6948,"longitude":-106.3,"us_state":"Texas","name":"Grinikhin,Quent"},{"address":"7 Daystar Avenue","latitude":38.6531,"longitude":-90.2435,"us_state":"Missouri","name":"Berk,Avie"},{"address":"2779 Carioca Park","latitude":34.0378,"longitude":-84.5038,"us_state":"Georgia","name":"Knudsen,Saree"},{"address":"01191 Southridge Drive","latitude":31.6948,"longitude":-106.3,"us_state":"Texas","name":"Laurentin,Bamby"},{"address":"269 Buhler Crossing","latitude":43.0696,"longitude":-89.4239,"us_state":"Wisconsin","name":"McVitie,Katusha"},{"address":"8 Luster Trail","latitude":38.068,"longitude":-122.741,"us_state":"California","name":"Spurr,Charity"},{"address":"54688 Artisan Trail","latitude":34.1446,"longitude":-117.3013,"us_state":"California","name":"Castiglio,Arlette"},{"address":"263 Waxwing Lane","latitude":45.5806,"longitude":-122.3748,"us_state":"Oregon","name":"Sandbatch,Heda"},{"address":"95636 School Parkway","latitude":39.2933,"longitude":-76.6238,"us_state":"Maryland","name":"Diggar,Jenna"},{"address":"438 Pierstorff Road","latitude":30.4756,"longitude":-87.3179,"us_state":"Florida","name":"Cockson,Skell"},{"address":"087 Dexter Pass","latitude":33.4707,"longitude":-111.7188,"us_state":"Arizona","name":"Stamp,Bridget"},{"address":"37 Morning Avenue","latitude":39.6472,"longitude":-105.0795,"us_state":"Colorado","name":"Mease,Packston"},{"address":"239 Rowland Terrace","latitude":38.9273,"longitude":-94.7143,"us_state":"Kansas","name":"Winspire,Frederik"},{"address":"5 Village Street","latitude":35.9901,"longitude":-83.9622,"us_state":"Tennessee","name":"Cousin,Duane"},{"address":"78885 Huxley Way","latitude":25.8507,"longitude":-80.2366,"us_state":"Florida","name":"Schaumaker,Jeffy"},{"address":"1 Meadow Ridge Parkway","latitude":43.0389,"longitude":-87.9024,"us_state":"Wisconsin","name":"Dunstall,Marylee"},{"address":"61497 Butternut Place","latitude":47.2325,"longitude":-122.3594,"us_state":"Washington","name":"Cammoile,Thorpe"},{"address":"56770 Pearson Drive","latitude":38.8933,"longitude":-77.0146,"us_state":"District of Columbia","name":"Pacher,Preston"},{"address":"353 Acker Circle","latitude":25.5584,"longitude":-80.4582,"us_state":"Florida","name":"Ferrick,Hurleigh"},{"address":"5277 Harper Street","latitude":33.8913,"longitude":-84.0746,"us_state":"Georgia","name":"Bardwall,Rora"},{"address":"873 Marquette Hill","latitude":41.249,"longitude":-96.0274,"us_state":"Nebraska","name":"Albinson,Berget"},{"address":"5 Anthes Road","latitude":39.7388,"longitude":-104.4083,"us_state":"Colorado","name":"Napleton,Jeremiah"},{"address":"804 Memorial Plaza","latitude":41.2722,"longitude":-75.8801,"us_state":"Pennsylvania","name":"Gerardi,Candy"},{"address":"576 Sachtjen Place","latitude":40.4344,"longitude":-80.0248,"us_state":"Pennsylvania","name":"Notton,Cher"},{"address":"84194 Rieder Crossing","latitude":43.0631,"longitude":-89.3133,"us_state":"Wisconsin","name":"Skeldinge,Reynard"},{"address":"3405 Crowley Lane","latitude":38.0283,"longitude":-84.4715,"us_state":"Kentucky","name":"Isard,Dylan"},{"address":"8 Killdeer Parkway","latitude":38.8808,"longitude":-77.113,"us_state":"Virginia","name":"Geroldi,Joete"},{"address":"65 Duke Avenue","latitude":39.5207,"longitude":-77.9162,"us_state":"Maryland","name":"Rosin,Orbadiah"},{"address":"7 Cambridge Avenue","latitude":41.0977,"longitude":-85.1189,"us_state":"Indiana","name":"Fossey,Madel"},{"address":"66 Kipling Terrace","latitude":21.351,"longitude":-157.8795,"us_state":"Hawaii","name":"Hyne,Mic"},{"address":"83 Manley Pass","latitude":42.362,"longitude":-71.083,"us_state":"Massachusetts","name":"Rucklesse,Florina"},{"address":"56 Homewood Hill","latitude":42.7684,"longitude":-78.8871,"us_state":"New York","name":"Rickarsey,Bengt"},{"address":"907 Monterey Park","latitude":39.7388,"longitude":-104.4083,"us_state":"Colorado","name":"Ackermann,Maren"},{"address":"9 Gerald Road","latitude":30.033,"longitude":-89.8826,"us_state":"Louisiana","name":"Holhouse,Randi"},{"address":"2 Michigan Point","latitude":61.1535,"longitude":-149.8289,"us_state":"Alaska","name":"Kave,Karia"},{"address":"6458 Luster Hill","latitude":30.3264,"longitude":-97.7713,"us_state":"Texas","name":"Ridding,Niels"},{"address":"547 Killdeer Crossing","latitude":33.6706,"longitude":-117.7645,"us_state":"California","name":"Planque,Shurlock"},{"address":"043 Spohn Center","latitude":39.0429,"longitude":-95.7697,"us_state":"Kansas","name":"Trowbridge,Erinn"},{"address":"7 Bonner Trail","latitude":37.6802,"longitude":-121.9215,"us_state":"California","name":"Bosse,Charlean"},{"address":"9 Forest Run Plaza","latitude":30.3704,"longitude":-81.5864,"us_state":"Florida","name":"Hext,Gage"},{"address":"76 Bobwhite Way","latitude":31.6948,"longitude":-106.3,"us_state":"Texas","name":"Chetwin,Brett"},{"address":"9 Emmet Pass","latitude":30.1949,"longitude":-85.6727,"us_state":"Florida","name":"Bromet,Lari"},{"address":"6 Atwood Trail","latitude":38.7351,"longitude":-77.0796,"us_state":"Virginia","name":"Shortcliffe,Batsheva"},{"address":"85273 Randy Circle","latitude":35.3471,"longitude":-120.4553,"us_state":"California","name":"Swadden,Gerhardine"},{"address":"4 Portage Avenue","latitude":33.7866,"longitude":-118.2987,"us_state":"California","name":"Janovsky,Cindelyn"},{"address":"33 Sherman Center","latitude":38.8933,"longitude":-77.0146,"us_state":"District of Columbia","name":"Jeannenet,Carolina"},{"address":"4 Sutteridge Trail","latitude":42.1827,"longitude":-80.0649,"us_state":"Pennsylvania","name":"Kelsall,Joey"},{"address":"7190 Talmadge Junction","latitude":38.8158,"longitude":-77.09,"us_state":"Virginia","name":"Pedrielli,Ervin"},{"address":"7276 Kropf Trail","latitude":33.7866,"longitude":-118.2987,"us_state":"California","name":"Fley,Violet"},{"address":"70186 Havey Way","latitude":32.0295,"longitude":-102.0915,"us_state":"Texas","name":"Millott,Roderick"},{"address":"06529 Cody Parkway","latitude":45.2009,"longitude":-93.8881,"us_state":"Minnesota","name":"Petett,Prescott"},{"address":"5449 Fairfield Alley","latitude":40.6681,"longitude":-111.9083,"us_state":"Utah","name":"Pretious,Christy"},{"address":"99 Comanche Crossing","latitude":40.754,"longitude":-73.9808,"us_state":"New York","name":"Darrach,Sybil"},{"address":"3754 Lukken Plaza","latitude":40.43,"longitude":-74.4173,"us_state":"New Jersey","name":"Gresty,Robin"},{"address":"2745 Pepper Wood Street","latitude":29.8941,"longitude":-95.6481,"us_state":"Texas","name":"Yardley,Aime"},{"address":"14610 Larry Trail","latitude":42.4464,"longitude":-71.4594,"us_state":"Massachusetts","name":"MacNeilage,Blair"},{"address":"8 Green Ridge Circle","latitude":40.4344,"longitude":-80.0248,"us_state":"Pennsylvania","name":"Pearse,Hieronymus"},{"address":"6 Village Trail","latitude":35.4242,"longitude":-97.6547,"us_state":"Oklahoma","name":"Ronaghan,Dino"},{"address":"46940 Sutherland Junction","latitude":43.0746,"longitude":-88.0604,"us_state":"Wisconsin","name":"Labro,Claiborne"},{"address":"1 Grasskamp Alley","latitude":41.5386,"longitude":-90.6115,"us_state":"Iowa","name":"Beceril,Aigneis"},{"address":"431 Eastwood Point","latitude":35.7977,"longitude":-78.6253,"us_state":"North Carolina","name":"Jorn,Olivia"},{"address":"7 Alpine Plaza","latitude":39.7434,"longitude":-75.5827,"us_state":"Delaware","name":"Fursse,Jeremy"},{"address":"999 Welch Street","latitude":31.7705,"longitude":-106.5048,"us_state":"Texas","name":"Tickel,Jan"},{"address":"833 Moose Trail","latitude":31.2034,"longitude":-92.5269,"us_state":"Louisiana","name":"Spillard,Goraud"},{"address":"98977 Magdeline Street","latitude":45.2009,"longitude":-93.8881,"us_state":"Minnesota","name":"Gabites,Romola"},{"address":"283 Continental Alley","latitude":33.811,"longitude":-117.8493,"us_state":"California","name":"McIlwraith,Bondy"},{"address":"81931 Division Lane","latitude":33.3813,"longitude":-86.7046,"us_state":"Alabama","name":"Dufour,Guillermo"},{"address":"9 Park Meadow Alley","latitude":39.439,"longitude":-76.5921,"us_state":"Maryland","name":"Foresight,Arlee"},{"address":"8 Cody Plaza","latitude":27.777,"longitude":-97.4632,"us_state":"Texas","name":"Monni,Christian"},{"address":"65957 Nevada Terrace","latitude":30.2231,"longitude":-81.7556,"us_state":"Florida","name":"Werny,Harrison"},{"address":"398 Mcbride Drive","latitude":34.2006,"longitude":-118.4868,"us_state":"California","name":"Abrahart,Dari"},{"address":"2372 Vidon Circle","latitude":33.8359,"longitude":-117.9086,"us_state":"California","name":"Kellard,Benjie"},{"address":"1631 Brentwood Avenue","latitude":38.8318,"longitude":-77.2888,"us_state":"Virginia","name":"Roskell,Borden"},{"address":"57737 Sunnyside Place","latitude":39.1092,"longitude":-84.6108,"us_state":"Ohio","name":"Lyptrade,Orella"},{"address":"0 Lindbergh Park","latitude":38.8933,"longitude":-77.0146,"us_state":"District of Columbia","name":"O'Bradden,Willyt"},{"address":"458 Farragut Point","latitude":35.9279,"longitude":-114.9721,"us_state":"Nevada","name":"Fannin,Morgun"},{"address":"6 Westend Court","latitude":38.9,"longitude":-77.0369,"us_state":"District of Columbia","name":"Tures,Aurelia"},{"address":"89 Hoepker Point","latitude":38.896,"longitude":-77.0177,"us_state":"District of Columbia","name":"Ayrs,Albie"},{"address":"50917 Truax Terrace","latitude":34.7519,"longitude":-92.3925,"us_state":"Arkansas","name":"Dullingham,Vidovik"},{"address":"5760 Esker Drive","latitude":47.1042,"longitude":-122.87,"us_state":"Washington","name":"Viles,Beatrice"},{"address":"1518 Nevada Point","latitude":42.7286,"longitude":-84.5517,"us_state":"Michigan","name":"Soro,Cad"},{"address":"017 Northland Lane","latitude":39.6269,"longitude":-119.7081,"us_state":"Nevada","name":"Tomasi,Finn"},{"address":"02 Saint Paul Circle","latitude":42.3654,"longitude":-71.2316,"us_state":"Massachusetts","name":"Gilchrist,Erminia"},{"address":"736 Thackeray Place","latitude":42.1087,"longitude":-79.9535,"us_state":"Pennsylvania","name":"Dochon,Chery"},{"address":"48 Gerald Circle","latitude":34.1231,"longitude":-79.6893,"us_state":"South Carolina","name":"Penddreth,Murial"},{"address":"35 Lerdahl Court","latitude":41.8784,"longitude":-87.633,"us_state":"Illinois","name":"Donaldson,Halimeda"},{"address":"86240 Barby Crossing","latitude":40.5051,"longitude":-80.1155,"us_state":"Pennsylvania","name":"Goldring,Odille"},{"address":"5 Helena Drive","latitude":37.6379,"longitude":-97.2613,"us_state":"Kansas","name":"Fothergill,Adolph"},{"address":"13 Green Ridge Street","latitude":43.286,"longitude":-77.6843,"us_state":"New York","name":"Dungey,Britteny"},{"address":"6 Roxbury Parkway","latitude":32.9189,"longitude":-96.7751,"us_state":"Texas","name":"Upstone,Helenka"},{"address":"21242 Pond Parkway","latitude":39.361,"longitude":-76.5891,"us_state":"Maryland","name":"De Winton,Eliza"},{"address":"431 Westridge Road","latitude":36.9312,"longitude":-76.2397,"us_state":"Virginia","name":"Reyner,Joanne"},{"address":"508 Holmberg Terrace","latitude":37.9971,"longitude":-87.575,"us_state":"Indiana","name":"Slate,Dari"},{"address":"48 Prentice Alley","latitude":38.4797,"longitude":-121.4438,"us_state":"California","name":"Whistlecraft,Bond"},{"address":"8715 Basil Alley","latitude":40.3286,"longitude":-75.1028,"us_state":"Pennsylvania","name":"Corking,Donalt"},{"address":"0 Union Hill","latitude":41.119,"longitude":-73.733,"us_state":"New York","name":"Goodley,Sebastiano"},{"address":"565 Armistice Pass","latitude":35.7977,"longitude":-78.6253,"us_state":"North Carolina","name":"Brislawn,Robinet"},{"address":"1 Autumn Leaf Way","latitude":37.5242,"longitude":-77.4932,"us_state":"Virginia","name":"Heustice,Gaven"},{"address":"3945 Calypso Street","latitude":42.3823,"longitude":-71.0323,"us_state":"Massachusetts","name":"Roser,Langston"},{"address":"2 Declaration Street","latitude":32.6076,"longitude":-93.7526,"us_state":"Louisiana","name":"Babbe,Gerry"},{"address":"722 Atwood Plaza","latitude":35.7977,"longitude":-78.6253,"us_state":"North Carolina","name":"Massot,Richardo"},{"address":"909 Village Green Street","latitude":42.5125,"longitude":-83.0643,"us_state":"Michigan","name":"Verrier,Cathy"},{"address":"872 Sundown Avenue","latitude":35.7977,"longitude":-78.6253,"us_state":"North Carolina","name":"Carlo,Rossy"},{"address":"26 Oak Valley Drive","latitude":36.7563,"longitude":-121.6703,"us_state":"California","name":"Jovis,Felice"},{"address":"7 La Follette Circle","latitude":39.7388,"longitude":-104.4083,"us_state":"Colorado","name":"Vodden,Marillin"},{"address":"48756 Jenifer Way","latitude":32.7673,"longitude":-96.7776,"us_state":"Texas","name":"Bishell,Dexter"},{"address":"329 Cambridge Junction","latitude":27.8444,"longitude":-82.7963,"us_state":"Florida","name":"Rapper,Godfrey"},{"address":"6326 Erie Court","latitude":30.033,"longitude":-89.8826,"us_state":"Louisiana","name":"Torricina,Cass"},{"address":"62 Lawn Park","latitude":44.9427,"longitude":-93.0828,"us_state":"Minnesota","name":"Picknett,Starlene"},{"address":"39 Laurel Drive","latitude":37.8044,"longitude":-122.2698,"us_state":"California","name":"Pohl,Martyn"},{"address":"1 Maple Wood Center","latitude":38.8518,"longitude":-94.3944,"us_state":"Missouri","name":"Norcutt,Clarita"},{"address":"44968 Schiller Junction","latitude":27.872,"longitude":-82.4388,"us_state":"Florida","name":"Kenaway,Lauree"},{"address":"6546 Waxwing Circle","latitude":33.5446,"longitude":-86.9292,"us_state":"Alabama","name":"Freshwater,Clare"},{"address":"604 Parkside Street","latitude":40.7286,"longitude":-111.6627,"us_state":"Utah","name":"Letrange,Viole"},{"address":"44 Northwestern Court","latitude":40.7918,"longitude":-74.2452,"us_state":"New Jersey","name":"Colvill,Tim"},{"address":"33 Bunting Point","latitude":39.5387,"longitude":-119.8225,"us_state":"Nevada","name":"Wafer,Benny"},{"address":"8389 Sommers Street","latitude":45.5806,"longitude":-122.3748,"us_state":"Oregon","name":"Sedgebeer,Addia"}]